{"station":{"1408":{"id":"1408","ref":"2025816120","name":"Porte d'Orl\u00e9ans (G\u00e9n\u00e9ral Leclerc)","lat":"48.822601","lng":"2.324806","passengers":"1008"},"1377":{"id":"1377","ref":"175753322","name":"Vavin","lat":"48.842003","lng":"2.329003","passengers":"235"},"1424":{"id":"1424","ref":"3103087595","name":"Porte d'Italie","lat":"48.818935","lng":"2.359856","passengers":"269"},"1409":{"id":"1409","ref":"3549826816","name":"Bel-Air","lat":"48.841896","lng":"2.401206","passengers":"248"},"1393":{"id":"1393","ref":"3332581557","name":"Ch\u00e2tillon Montrouge","lat":"48.810314","lng":"2.301248","passengers":"687"},"1378":{"id":"1378","ref":"2540754978","name":"Campo-Formio","lat":"48.835777","lng":"2.358153","passengers":"129"},"1432":{"id":"1432","ref":"1322902301","name":"Ecole V\u00e9t\u00e9rinaire de Maisons-Alfort","lat":"48.815151","lng":"2.420756","passengers":"354"},"1425":{"id":"1425","ref":"3345569136","name":"Libert\u00e9","lat":"48.825836","lng":"2.406926","passengers":"273"},"1417":{"id":"1417","ref":"3567429859","name":"Porte Dor\u00e9e","lat":"48.835438","lng":"2.406018","passengers":"281"},"1410":{"id":"1410","ref":"1314938315","name":"Les Gobelins","lat":"48.836613","lng":"2.351642","passengers":"402"},"1401":{"id":"1401","ref":"1726955494","name":"La D\u00e9fense (Grande Arche)","lat":"48.891933","lng":"2.237883","passengers":"1455"},"1394":{"id":"1394","ref":"276344470","name":"Esplanade de la D\u00e9fense","lat":"48.887844","lng":"2.250442","passengers":"916"},"1386":{"id":"1386","ref":"2177031349","name":"Sully-Morland","lat":"48.851032","lng":"2.361867","passengers":"168"},"1379":{"id":"1379","ref":"3494453711","name":"Chevaleret","lat":"48.834408","lng":"2.367165","passengers":"315"},"1440":{"id":"1440","ref":"129206825","name":"Porte de Montreuil","lat":"48.853451","lng":"2.410434","passengers":"506"},"1433":{"id":"1433","ref":"3110610795","name":"Buzenval","lat":"48.851734","lng":"2.401025","passengers":"194"},"1429":{"id":"1429","ref":"737890386","name":"Charenton-Ecoles","lat":"48.821365","lng":"2.414074","passengers":"312"},"1426":{"id":"1426","ref":"714987642","name":"Rue des Boulets","lat":"48.852142","lng":"2.389143","passengers":"280"},"1421":{"id":"1421","ref":"2398034976","name":"Porte de Charenton","lat":"48.832527","lng":"2.399701","passengers":"100"},"1418":{"id":"1418","ref":"4158739832","name":"Voltaire (L\u00e9on Blum)","lat":"48.857876","lng":"2.379884","passengers":"554"},"1414":{"id":"1414","ref":"1736981303","name":"Saint-Ambroise","lat":"48.861214","lng":"2.374098","passengers":"289"},"1411":{"id":"1411","ref":"2196409879","name":"Porte de Versailles","lat":"48.832462","lng":"2.288003","passengers":"659"},"1405":{"id":"1405","ref":"1202011076","name":"Censier-Daubenton","lat":"48.840534","lng":"2.351429","passengers":"395"},"1402":{"id":"1402","ref":"555784063","name":"Gallieni (Parc de Bagnolet)","lat":"48.863335","lng":"2.415683","passengers":"663"},"1398":{"id":"1398","ref":"946374679","name":"Dugommier","lat":"48.838913","lng":"2.388953","passengers":"283"},"1395":{"id":"1395","ref":"3761260163","name":"Avron","lat":"48.850979","lng":"2.397980","passengers":"201"},"1390":{"id":"1390","ref":"1227645826","name":"Alexandre-Dumas","lat":"48.856174","lng":"2.394990","passengers":"412"},"1387":{"id":"1387","ref":"3780921823","name":"Ledru-Rollin","lat":"48.851192","lng":"2.375945","passengers":"402"},"1383":{"id":"1383","ref":"259791766","name":"Les Sablons (Jardin d'acclimatation)","lat":"48.880901","lng":"2.272539","passengers":"570"},"1380":{"id":"1380","ref":"986262698","name":"Pont Marie (Cit\u00e9 des Arts)","lat":"48.853310","lng":"2.357459","passengers":"167"},"1444":{"id":"1444","ref":"1867201487","name":"Croix-de-Chavaux (Jacques Duclos)","lat":"48.857925","lng":"2.436098","passengers":"523"},"1441":{"id":"1441","ref":"673864223","name":"Cr\u00e9teil-L'Echat (H\u00f4pital Henri Mondor)","lat":"48.796463","lng":"2.449062","passengers":"221"},"1437":{"id":"1437","ref":"1360893278","name":"Maraichers","lat":"48.852661","lng":"2.406231","passengers":"313"},"1434":{"id":"1434","ref":"1673135790","name":"Villejuif-Louis Aragon","lat":"48.787003","lng":"2.366975","passengers":"593"},"1431":{"id":"1431","ref":"821130227","name":"Porte d'Ivry","lat":"48.821270","lng":"2.369095","passengers":"200"},"1430":{"id":"1430","ref":"4024543803","name":"Villejuif-Paul Vaillant Couturier (H\u00f4pital Paul Brousse)","lat":"48.795944","lng":"2.367966","passengers":"222"},"1428":{"id":"1428","ref":"486421116","name":"Porte de Choisy","lat":"48.820145","lng":"2.364346","passengers":"327"},"1427":{"id":"1427","ref":"941822868","name":"Villejuif-L\u00e9o Lagrange","lat":"48.804173","lng":"2.363944","passengers":"251"},"1423":{"id":"1423","ref":"188649288","name":"Le Kremlin-Bic\u00eatre","lat":"48.810383","lng":"2.361613","passengers":"471"},"1422":{"id":"1422","ref":"3616461854","name":"Charonne","lat":"48.854767","lng":"2.385271","passengers":"412"},"1420":{"id":"1420","ref":"1826166775","name":"Maison Blanche","lat":"48.822620","lng":"2.358189","passengers":"226"},"1419":{"id":"1419","ref":"87667279","name":"Mairie d'Issy","lat":"48.824814","lng":"2.273504","passengers":"440"},"1416":{"id":"1416","ref":"46216692","name":"Tolbiac","lat":"48.826508","lng":"2.357242","passengers":"379"},"1415":{"id":"1415","ref":"3332683073","name":"Corentin-Celton","lat":"48.827244","lng":"2.279307","passengers":"355"},"1413":{"id":"1413","ref":"3702452106","name":"Michel Bizot","lat":"48.836704","lng":"2.402969","passengers":"221"},"1412":{"id":"1412","ref":"2493371295","name":"Picpus","lat":"48.845261","lng":"2.401255","passengers":"157"},"1407":{"id":"1407","ref":"2050396911","name":"Convention","lat":"48.837471","lng":"2.296900","passengers":"607"},"1406":{"id":"1406","ref":"2346477303","name":"Montgallet","lat":"48.844250","lng":"2.389802","passengers":"188"},"1404":{"id":"1404","ref":"3100228085","name":"Daumesnil (F\u00e9lix Ebou\u00e9)","lat":"48.839363","lng":"2.395846","passengers":"571"},"1403":{"id":"1403","ref":"4261791583","name":"Al\u00e9sia","lat":"48.828400","lng":"2.326746","passengers":"558"},"1400":{"id":"1400","ref":"1526455506","name":"Vaugirard (Adolphe Ch\u00e9rioux)","lat":"48.839569","lng":"2.300983","passengers":"404"},"1399":{"id":"1399","ref":"3989473618","name":"Place Monge (Jardin des Plantes)","lat":"48.843197","lng":"2.352178","passengers":"307"},"1397":{"id":"1397","ref":"515539346","name":"Mouton-Duvernet","lat":"48.831322","lng":"2.329427","passengers":"177"},"1396":{"id":"1396","ref":"3379773416","name":"Porte de Bagnolet","lat":"48.864395","lng":"2.408000","passengers":"499"},"1392":{"id":"1392","ref":"1162874157","name":"Volontaires","lat":"48.841698","lng":"2.308041","passengers":"267"},"1391":{"id":"1391","ref":"3930049404","name":"Faidherbe-Chaligny","lat":"48.850239","lng":"2.384275","passengers":"312"},"1389":{"id":"1389","ref":"3504310849","name":"Pont de Neuilly","lat":"48.884510","lng":"2.259892","passengers":"713"},"1388":{"id":"1388","ref":"3273349984","name":"Malakoff-Rue Etienne Dolet","lat":"48.814667","lng":"2.296999","passengers":"194"},"1385":{"id":"1385","ref":"2706513156","name":"Quai de la Gare","lat":"48.837399","lng":"2.373784","passengers":"324"},"1384":{"id":"1384","ref":"3979953845","name":"Philippe Auguste","lat":"48.858364","lng":"2.389387","passengers":"190"},"1382":{"id":"1382","ref":"642786040","name":"Malakoff-Plateau de Vanves","lat":"48.823132","lng":"2.297015","passengers":"410"},"1381":{"id":"1381","ref":"3475396030","name":"Falgui\u00e8re","lat":"48.844639","lng":"2.317496","passengers":"97"},"1446":{"id":"1446","ref":"1990381110","name":"Mairie de Montreuil","lat":"48.862358","lng":"2.441656","passengers":"661"},"1445":{"id":"1445","ref":"3086704803","name":"Cr\u00e9teil-Pr\u00e9fecture (H\u00f4tel de Ville)","lat":"48.779747","lng":"2.459144","passengers":"511"},"1443":{"id":"1443","ref":"562653801","name":"Cr\u00e9teil-Universit\u00e9","lat":"48.789352","lng":"2.451447","passengers":"327"},"1442":{"id":"1442","ref":"3235782074","name":"Robespierre","lat":"48.855564","lng":"2.423557","passengers":"453"},"1439":{"id":"1439","ref":"3246051268","name":"Maisons-Alfort-Les Juilliottes","lat":"48.803143","lng":"2.444991","passengers":"207"},"1438":{"id":"1438","ref":"3954096031","name":"Mairie d'Ivry","lat":"48.811176","lng":"2.383808","passengers":"312"},"1436":{"id":"1436","ref":"2181002575","name":"Maisons-Alfort-Stade","lat":"48.808418","lng":"2.435582","passengers":"160"},"1435":{"id":"1435","ref":"1338908274","name":"Pierre et Marie Curie","lat":"48.815685","lng":"2.377287","passengers":"148"},"1220":{"id":"1220","ref":"1569477485","name":"Buttes-Chaumont","lat":"48.877777","lng":"2.381129","passengers":"60"},"1221":{"id":"1221","ref":"2893655003","name":"Nation","lat":"48.848465","lng":"2.395906","passengers":"996"},"1222":{"id":"1222","ref":"2120950107","name":"Courcelles","lat":"48.879234","lng":"2.303605","passengers":"282"},"1223":{"id":"1223","ref":"4091065876","name":"P\u00e9reire","lat":"48.884548","lng":"2.297517","passengers":"491"},"1224":{"id":"1224","ref":"1721597436","name":"Barb\u00e8s-Rochechouart","lat":"48.883621","lng":"2.349737","passengers":"979"},"1225":{"id":"1225","ref":"4198988390","name":"Porte de Pantin","lat":"48.888332","lng":"2.391469","passengers":"470"},"1226":{"id":"1226","ref":"2465875946","name":"Passy","lat":"48.857632","lng":"2.285865","passengers":"411"},"1227":{"id":"1227","ref":"635591290","name":"Corentin-Cariou","lat":"48.894905","lng":"2.382446","passengers":"324"},"1228":{"id":"1228","ref":"2688858633","name":"Commerce","lat":"48.844810","lng":"2.293353","passengers":"283"},"1229":{"id":"1229","ref":"3499425610","name":"Exelmans","lat":"48.842426","lng":"2.259737","passengers":"208"},"1230":{"id":"1230","ref":"2932899145","name":"Cluny-La Sorbonne","lat":"48.851040","lng":"2.345222","passengers":"288"},"1231":{"id":"1231","ref":"352028051","name":"Mirabeau","lat":"48.847340","lng":"2.273406","passengers":"145"},"1232":{"id":"1232","ref":"891393435","name":"R\u00e9publique","lat":"48.867485","lng":"2.363670","passengers":"1796"},"1233":{"id":"1233","ref":"3200465306","name":"Lamarck-Caulaincourt","lat":"48.889755","lng":"2.338890","passengers":"320"},"1234":{"id":"1234","ref":"65431437","name":"Brochant","lat":"48.890381","lng":"2.320028","passengers":"357"},"1235":{"id":"1235","ref":"3421576237","name":"Mairie de Saint-Ouen","lat":"48.912064","lng":"2.334163","passengers":"392"},"1236":{"id":"1236","ref":"3891613492","name":"Gare de Lyon","lat":"48.844704","lng":"2.374066","passengers":"3626"},"1237":{"id":"1237","ref":"3591610132","name":"Reuilly-Diderot","lat":"48.847237","lng":"2.386118","passengers":"572"},"1238":{"id":"1238","ref":"48157230","name":"Monceau","lat":"48.880630","lng":"2.308966","passengers":"168"},"1239":{"id":"1239","ref":"469044143","name":"Wagram","lat":"48.883873","lng":"2.304651","passengers":"270"},"1240":{"id":"1240","ref":"2058569149","name":"Gare du Nord","lat":"48.879967","lng":"2.354703","passengers":"5058"},"1241":{"id":"1241","ref":"4065628367","name":"Ourcq","lat":"48.886974","lng":"2.386030","passengers":"408"},"1242":{"id":"1242","ref":"499775835","name":"Bir-Hakeim (Grenelle)","lat":"48.854332","lng":"2.288783","passengers":"822"},"1243":{"id":"1243","ref":"882210155","name":"Crim\u00e9e","lat":"48.890682","lng":"2.376815","passengers":"754"},"1244":{"id":"1244","ref":"2635662580","name":"La Motte-Picquet-Grenelle","lat":"48.849159","lng":"2.297949","passengers":"850"},"1245":{"id":"1245","ref":"3715978556","name":"Od\u00e9on","lat":"48.852249","lng":"2.338558","passengers":"655"},"1246":{"id":"1246","ref":"4025722812","name":"Javel-Andr\u00e9-Citroen","lat":"48.846104","lng":"2.278455","passengers":"259"},"1247":{"id":"1247","ref":"3714063920","name":"Goncourt (H\u00f4pital Saint-Louis)","lat":"48.869678","lng":"2.371273","passengers":"383"},"1248":{"id":"1248","ref":"2075612487","name":"Abbesses","lat":"48.884418","lng":"2.338713","passengers":"267"},"1249":{"id":"1249","ref":"3325830777","name":"La Fourche","lat":"48.887390","lng":"2.326039","passengers":"312"},"1250":{"id":"1250","ref":"3691015742","name":"Garibaldi","lat":"48.906033","lng":"2.331733","passengers":"324"},"1251":{"id":"1251","ref":"1194974051","name":"Bercy","lat":"48.840427","lng":"2.379583","passengers":"584"},"1252":{"id":"1252","ref":"209994619","name":"Place des F\u00eates","lat":"48.876820","lng":"2.393473","passengers":"343"},"1253":{"id":"1253","ref":"1282474756","name":"Villiers","lat":"48.881054","lng":"2.315271","passengers":"650"},"1254":{"id":"1254","ref":"1126076862","name":"Malesherbes","lat":"48.882816","lng":"2.309694","passengers":"267"},"1255":{"id":"1255","ref":"1393958362","name":"Gare de l'Est (Verdun)","lat":"48.876060","lng":"2.357919","passengers":"2066"},"1256":{"id":"1256","ref":"3907763713","name":"Laumi\u00e8re","lat":"48.885040","lng":"2.379596","passengers":"474"},"1257":{"id":"1257","ref":"3129038787","name":"Dupleix","lat":"48.850807","lng":"2.292770","passengers":"405"},"1258":{"id":"1258","ref":"2096931515","name":"Riquet","lat":"48.888123","lng":"2.374487","passengers":"264"},"1259":{"id":"1259","ref":"2496888016","name":"Ecole Militaire","lat":"48.854519","lng":"2.305544","passengers":"462"},"1260":{"id":"1260","ref":"3253812998","name":"Michel-Ange-Auteuil","lat":"48.847740","lng":"2.264297","passengers":"231"},"1261":{"id":"1261","ref":"1098202862","name":"Mabillon","lat":"48.852818","lng":"2.335409","passengers":"201"},"1262":{"id":"1262","ref":"3565805587","name":"Charles Michels","lat":"48.846336","lng":"2.286332","passengers":"408"},"1263":{"id":"1263","ref":"3987776330","name":"Belleville","lat":"48.872044","lng":"2.376806","passengers":"1239"},"1264":{"id":"1264","ref":"3614543683","name":"Pigalle","lat":"48.882496","lng":"2.337623","passengers":"648"},"1265":{"id":"1265","ref":"3265715605","name":"Place de Clichy","lat":"48.883621","lng":"2.327307","passengers":"972"},"1266":{"id":"1266","ref":"1183318172","name":"Porte de Saint-Ouen","lat":"48.897251","lng":"2.328838","passengers":"400"},"1267":{"id":"1267","ref":"2871016604","name":"Cour Saint-Emilion","lat":"48.833485","lng":"2.387613","passengers":"583"},"1268":{"id":"1268","ref":"3398784409","name":"Bastille","lat":"48.852840","lng":"2.369181","passengers":"1315"},"1269":{"id":"1269","ref":"1362116730","name":"Rome","lat":"48.882530","lng":"2.320984","passengers":"288"},"1270":{"id":"1270","ref":"2826028950","name":"Ch\u00e2teau d'Eau","lat":"48.872589","lng":"2.355470","passengers":"508"},"1271":{"id":"1271","ref":"2577613756","name":"Stalingrad","lat":"48.884304","lng":"2.367085","passengers":"725"},"1272":{"id":"1272","ref":"4290789948","name":"La Tour-Maubourg","lat":"48.857384","lng":"2.309599","passengers":"215"},"1273":{"id":"1273","ref":"2673577552","name":"Jasmin","lat":"48.852341","lng":"2.267907","passengers":"216"},"1274":{"id":"1274","ref":"2488289503","name":"S\u00e8vres-Babylone","lat":"48.851204","lng":"2.325873","passengers":"590"},"1275":{"id":"1275","ref":"560256723","name":"Avenue Emile-Zola","lat":"48.846966","lng":"2.294938","passengers":"155"},"1276":{"id":"1276","ref":"637614763","name":"Pyrenees","lat":"48.873890","lng":"2.384890","passengers":"344"},"1277":{"id":"1277","ref":"3838784219","name":"Saint-Georges","lat":"48.878510","lng":"2.337589","passengers":"131"},"1278":{"id":"1278","ref":"618858167","name":"Li\u00e8ge","lat":"48.879562","lng":"2.326517","passengers":"181"},"1279":{"id":"1279","ref":"2974665047","name":"Guy-M\u00f4quet","lat":"48.892467","lng":"2.327227","passengers":"475"},"1280":{"id":"1280","ref":"2535004149","name":"Bibliotheque-Francois Mitterrand","lat":"48.829605","lng":"2.376093","passengers":"1662"},"1281":{"id":"1281","ref":"1877754383","name":"Saint-Paul (Le Marais)","lat":"48.855145","lng":"2.360653","passengers":"658"},"1282":{"id":"1282","ref":"4013515236","name":"Europe","lat":"48.878712","lng":"2.322825","passengers":"161"},"1283":{"id":"1283","ref":"3300801987","name":"Strasbourg-Saint-Denis","lat":"48.869202","lng":"2.354097","passengers":"771"},"1284":{"id":"1284","ref":"3875198686","name":"Cambronne","lat":"48.847458","lng":"2.301808","passengers":"331"},"1285":{"id":"1285","ref":"4225800166","name":"Invalides","lat":"48.861687","lng":"2.314357","passengers":"728"},"1286":{"id":"1286","ref":"3164047331","name":"Ranelagh","lat":"48.855392","lng":"2.269980","passengers":"243"},"1287":{"id":"1287","ref":"4012104432","name":"Vaneau","lat":"48.848873","lng":"2.321934","passengers":"97"},"1288":{"id":"1288","ref":"3468280332","name":"Jourdain","lat":"48.875168","lng":"2.389193","passengers":"359"},"1289":{"id":"1289","ref":"3781035794","name":"Notre-Dame de Lorette","lat":"48.876625","lng":"2.338454","passengers":"299"},"1290":{"id":"1290","ref":"2890651828","name":"Olympiades","lat":"48.826859","lng":"2.367297","passengers":"761"},"1291":{"id":"1291","ref":"3117275467","name":"Blanche","lat":"48.883656","lng":"2.331668","passengers":"446"},"1292":{"id":"1292","ref":"1213432453","name":"R\u00e9aumur-S\u00e9bastopol","lat":"48.866310","lng":"2.352035","passengers":"615"},"1293":{"id":"1293","ref":"2801003483","name":"S\u00e8vres-Lecourbe","lat":"48.845131","lng":"2.310184","passengers":"253"},"1294":{"id":"1294","ref":"2692076464","name":"Ch\u00e2teau Landon","lat":"48.878311","lng":"2.362299","passengers":"168"},"1295":{"id":"1295","ref":"2011584683","name":"Concorde","lat":"48.866184","lng":"2.323300","passengers":"721"},"1296":{"id":"1296","ref":"1390530723","name":"La Muette","lat":"48.857937","lng":"2.274117","passengers":"432"},"1297":{"id":"1297","ref":"2198512348","name":"Duroc","lat":"48.846783","lng":"2.316723","passengers":"338"},"1298":{"id":"1298","ref":"600722887","name":"S\u00e9gur","lat":"48.846752","lng":"2.307820","passengers":"170"},"1299":{"id":"1299","ref":"2009211090","name":"Trinit\u00e9-d'Estienne d'Orves","lat":"48.876511","lng":"2.333058","passengers":"230"},"1300":{"id":"1300","ref":"3524584243","name":"Miromesnil","lat":"48.873707","lng":"2.315199","passengers":"606"},"1301":{"id":"1301","ref":"645341577","name":"Havre-Caumartin","lat":"48.873344","lng":"2.328508","passengers":"876"},"1302":{"id":"1302","ref":"2358884938","name":"Etienne Marcel","lat":"48.863495","lng":"2.348670","passengers":"279"},"1303":{"id":"1303","ref":"1450883263","name":"Pasteur","lat":"48.842937","lng":"2.312656","passengers":"534"},"1304":{"id":"1304","ref":"3217152725","name":"Rue de la Pompe (Avenue Georges Mandel)","lat":"48.864101","lng":"2.277626","passengers":"323"},"1305":{"id":"1305","ref":"595945906","name":"Telegraphe","lat":"48.875393","lng":"2.398590","passengers":"226"},"1306":{"id":"1306","ref":"2669665705","name":"Champs-Elys\u00e9es-Cl\u00e9menceau","lat":"48.867413","lng":"2.313959","passengers":"473"},"1307":{"id":"1307","ref":"3747807733","name":"Louvre-Rivoli","lat":"48.860538","lng":"2.341000","passengers":"271"},"1308":{"id":"1308","ref":"244503826","name":"Anvers","lat":"48.883133","lng":"2.343973","passengers":"700"},"1309":{"id":"1309","ref":"73874293","name":"Op\u00e9ra","lat":"48.870705","lng":"2.331805","passengers":"1301"},"1310":{"id":"1310","ref":"606571514","name":"Les Halles","lat":"48.862194","lng":"2.345836","passengers":"1377"},"1311":{"id":"1311","ref":"1727514119","name":"Jacques-Bonsergent","lat":"48.870975","lng":"2.360538","passengers":"275"},"1312":{"id":"1312","ref":"44881418","name":"Montparnasse-Bienvenue","lat":"48.843044","lng":"2.322635","passengers":"3272"},"1313":{"id":"1313","ref":"1876271269","name":"Poissonni\u00e8re","lat":"48.877338","lng":"2.349606","passengers":"375"},"1314":{"id":"1314","ref":"2924666242","name":"Palais-Royal (Mus\u00e9e du Louvre)","lat":"48.862846","lng":"2.335817","passengers":"1004"},"1315":{"id":"1315","ref":"3649286437","name":"Quatre Septembre","lat":"48.869373","lng":"2.335742","passengers":"184"},"1316":{"id":"1316","ref":"2624477086","name":"Edgar-Quinet","lat":"48.840336","lng":"2.326171","passengers":"233"},"1317":{"id":"1317","ref":"2425224985","name":"Cadet","lat":"48.875477","lng":"2.343059","passengers":"383"},"1318":{"id":"1318","ref":"3211140642","name":"Richelieu-Drouot","lat":"48.872013","lng":"2.339088","passengers":"556"},"1319":{"id":"1319","ref":"4248981646","name":"I\u00e9na","lat":"48.864471","lng":"2.293800","passengers":"222"},"1320":{"id":"1320","ref":"2805226700","name":"Mairie des Lilas","lat":"48.879799","lng":"2.416239","passengers":"483"},"1321":{"id":"1321","ref":"3411985938","name":"Varenne","lat":"48.857517","lng":"2.315530","passengers":"159"},"1322":{"id":"1322","ref":"2247827349","name":"Tuileries","lat":"48.864498","lng":"2.330314","passengers":"259"},"1323":{"id":"1323","ref":"3487389407","name":"La Chapelle","lat":"48.883965","lng":"2.358500","passengers":"725"},"1324":{"id":"1324","ref":"1152988904","name":"Bourse","lat":"48.868797","lng":"2.341233","passengers":"352"},"1325":{"id":"1325","ref":"3711272335","name":"Cit\u00e9","lat":"48.855103","lng":"2.346720","passengers":"248"},"1326":{"id":"1326","ref":"4122770022","name":"Oberkampf","lat":"48.864517","lng":"2.368674","passengers":"441"},"1327":{"id":"1327","ref":"4198886535","name":"Raspail","lat":"48.838963","lng":"2.330583","passengers":"187"},"1328":{"id":"1328","ref":"2696990795","name":"Le Peletier","lat":"48.874935","lng":"2.339803","passengers":"234"},"1329":{"id":"1329","ref":"1561893142","name":"Grands Boulevards","lat":"48.871418","lng":"2.343197","passengers":"717"},"1330":{"id":"1330","ref":"3224579423","name":"Alma-Marceau","lat":"48.864647","lng":"2.300883","passengers":"428"},"1331":{"id":"1331","ref":"2904169401","name":"Assembl\u00e9e Nationale","lat":"48.860901","lng":"2.320632","passengers":"114"},"1332":{"id":"1332","ref":"697925458","name":"Saint-Francois-Xavier","lat":"48.851864","lng":"2.314035","passengers":"194"},"1333":{"id":"1333","ref":"1931254292","name":"Sentier","lat":"48.867413","lng":"2.346614","passengers":"348"},"1334":{"id":"1334","ref":"1760224038","name":"Saint-Michel","lat":"48.853287","lng":"2.343468","passengers":"962"},"1335":{"id":"1335","ref":"1128226880","name":"Richard-Lenoir","lat":"48.860893","lng":"2.372098","passengers":"172"},"1336":{"id":"1336","ref":"3519554763","name":"Denfert-Rochereau","lat":"48.833591","lng":"2.331893","passengers":"455"},"1337":{"id":"1337","ref":"1102200894","name":"Chauss\u00e9e d'Antin (La Fayette)","lat":"48.872898","lng":"2.333501","passengers":"817"},"1338":{"id":"1338","ref":"3653339166","name":"Bonne Nouvelle","lat":"48.870560","lng":"2.348680","passengers":"545"},"1339":{"id":"1339","ref":"2734436604","name":"Franklin-Roosevelt","lat":"48.869305","lng":"2.308309","passengers":"1328"},"1340":{"id":"1340","ref":"3481964895","name":"Solf\u00e9rino","lat":"48.858551","lng":"2.322681","passengers":"257"},"1341":{"id":"1341","ref":"882992124","name":"Br\u00e9guet-Sabin","lat":"48.856518","lng":"2.370937","passengers":"257"},"1342":{"id":"1342","ref":"3616975530","name":"Saint-Jacques","lat":"48.833252","lng":"2.336220","passengers":"203"},"1343":{"id":"1343","ref":"1836707069","name":"Saint-Philippe du Roule","lat":"48.872181","lng":"2.309820","passengers":"295"},"1344":{"id":"1344","ref":"3720819819","name":"Eglise d'Auteuil","lat":"48.847179","lng":"2.268901","passengers":"18"},"1345":{"id":"1345","ref":"2120668118","name":"Rue du Bac","lat":"48.855755","lng":"2.325569","passengers":"269"},"1346":{"id":"1346","ref":"1500021116","name":"Colonel Fabien","lat":"48.877941","lng":"2.370147","passengers":"478"},"1347":{"id":"1347","ref":"977856475","name":"Saint-Germain des Pr\u00e9s","lat":"48.853615","lng":"2.333720","passengers":"477"},"1348":{"id":"1348","ref":"3180795927","name":"Glaci\u00e8re","lat":"48.831364","lng":"2.343939","passengers":"497"},"1349":{"id":"1349","ref":"3789783956","name":"Gait\u00e9","lat":"48.838490","lng":"2.322583","passengers":"338"},"1350":{"id":"1350","ref":"2877706505","name":"George V","lat":"48.871983","lng":"2.300463","passengers":"650"},"1351":{"id":"1351","ref":"3514016666","name":"Temple","lat":"48.866367","lng":"2.361081","passengers":"133"},"1352":{"id":"1352","ref":"590575000","name":"Saint-Sulpice","lat":"48.850803","lng":"2.330868","passengers":"255"},"1353":{"id":"1353","ref":"3179893028","name":"Quai de la Rap\u00e9e","lat":"48.845795","lng":"2.367036","passengers":"126"},"1354":{"id":"1354","ref":"1490149880","name":"Corvisart","lat":"48.829613","lng":"2.349438","passengers":"273"},"1355":{"id":"1355","ref":"1994114096","name":"Filles du Calvaire","lat":"48.863304","lng":"2.366453","passengers":"174"},"1356":{"id":"1356","ref":"4197757394","name":"Saint-Augustin","lat":"48.874676","lng":"2.320431","passengers":"307"},"1357":{"id":"1357","ref":"2702846096","name":"Porte d'Auteuil","lat":"48.848076","lng":"2.258648","passengers":"75"},"1358":{"id":"1358","ref":"695063120","name":"Rennes","lat":"48.848053","lng":"2.328083","passengers":"137"},"1359":{"id":"1359","ref":"2401493758","name":"Pern\u00e9ty","lat":"48.833817","lng":"2.317664","passengers":"344"},"1360":{"id":"1360","ref":"2858233536","name":"Couronnes","lat":"48.868969","lng":"2.379869","passengers":"349"},"1361":{"id":"1361","ref":"604149420","name":"Saint-Placide","lat":"48.846581","lng":"2.326933","passengers":"357"},"1362":{"id":"1362","ref":"224821915","name":"Place d'Italie","lat":"48.831406","lng":"2.355721","passengers":"1278"},"1363":{"id":"1363","ref":"2707323384","name":"Pont Neuf","lat":"48.858402","lng":"2.341949","passengers":"169"},"1364":{"id":"1364","ref":"3566817926","name":"Saint-S\u00e9bastien-Froissart","lat":"48.861282","lng":"2.367024","passengers":"176"},"1365":{"id":"1365","ref":"3683962764","name":"Notre-Dame des Champs","lat":"48.844917","lng":"2.328853","passengers":"213"},"1366":{"id":"1366","ref":"3690575038","name":"Plaisance","lat":"48.831764","lng":"2.314067","passengers":"488"},"1367":{"id":"1367","ref":"3566702934","name":"Argentine","lat":"48.875534","lng":"2.289322","passengers":"296"},"1368":{"id":"1368","ref":"94248676","name":"M\u00e9nilmontant","lat":"48.865948","lng":"2.383394","passengers":"451"},"1369":{"id":"1369","ref":"1742862628","name":"Parmentier","lat":"48.865162","lng":"2.375847","passengers":"352"},"1370":{"id":"1370","ref":"2649549238","name":"Saint-Marcel","lat":"48.839516","lng":"2.361409","passengers":"212"},"1371":{"id":"1371","ref":"1745152818","name":"Nationale","lat":"48.832710","lng":"2.362045","passengers":"275"},"1372":{"id":"1372","ref":"4246083363","name":"Chemin Vert","lat":"48.857563","lng":"2.367935","passengers":"152"},"1373":{"id":"1373","ref":"675269737","name":"Porte de Vanves","lat":"48.827675","lng":"2.305340","passengers":"495"},"1374":{"id":"1374","ref":"3145751766","name":"Porte Maillot","lat":"48.877964","lng":"2.281836","passengers":"930"},"1375":{"id":"1375","ref":"2503048334","name":"P\u00e8re-Lachaise","lat":"48.862614","lng":"2.386722","passengers":"512"},"1376":{"id":"1376","ref":"3830653061","name":"Rue Saint-Maur","lat":"48.863987","lng":"2.380073","passengers":"299"},"1211":{"id":"1211","ref":"482278776","name":"F\u00e9lix Faure","lat":"48.842976","lng":"2.291998","passengers":"203"},"1210":{"id":"1210","ref":"1033620933","name":"Porte de la Villette","lat":"48.897812","lng":"2.385806","passengers":"337"},"1179":{"id":"1179","ref":"3827069729","name":"H\u00f4tel de Ville","lat":"48.856770","lng":"2.351495","passengers":"1340"},"1209":{"id":"1209","ref":"20785767","name":"Trocad\u00e9ro","lat":"48.862972","lng":"2.287020","passengers":"888"},"1208":{"id":"1208","ref":"53962395","name":"Hoche","lat":"48.891315","lng":"2.403197","passengers":"548"},"1178":{"id":"1178","ref":"980642687","name":"Boulogne-Jean-Jaur\u00e8s","lat":"48.842220","lng":"2.238836","passengers":"393"},"1163":{"id":"1163","ref":"3957216179","name":"Saint-Denis-Universite","lat":"48.945625","lng":"2.362359","passengers":"563"},"1207":{"id":"1207","ref":"1293807658","name":"Ch\u00e2teau Rouge","lat":"48.887177","lng":"2.349827","passengers":"714"},"1206":{"id":"1206","ref":"3412286137","name":"Porte de Champerret","lat":"48.885551","lng":"2.292742","passengers":"373"},"1177":{"id":"1177","ref":"3882868379","name":"Jussieu","lat":"48.845837","lng":"2.354692","passengers":"428"},"1205":{"id":"1205","ref":"2334959990","name":"Ternes","lat":"48.878067","lng":"2.298031","passengers":"412"},"1204":{"id":"1204","ref":"1523019830","name":"Porte de Vincennes","lat":"48.847267","lng":"2.408884","passengers":"458"},"1176":{"id":"1176","ref":"351139424","name":"Billancourt","lat":"48.831944","lng":"2.238110","passengers":"277"},"1162":{"id":"1162","ref":"271775302","name":"Les Agnettes","lat":"48.922916","lng":"2.285828","passengers":"248"},"1155":{"id":"1155","ref":"37245713","name":"La Courneuve-8-Mai-1945","lat":"48.920902","lng":"2.410455","passengers":"599"},"1203":{"id":"1203","ref":"1091103895","name":"Botzaris","lat":"48.879337","lng":"2.388734","passengers":"115"},"1202":{"id":"1202","ref":"245371276","name":"Bolivar","lat":"48.880585","lng":"2.373978","passengers":"61"},"1175":{"id":"1175","ref":"4278050457","name":"Lourmel","lat":"48.838490","lng":"2.281759","passengers":"256"},"1201":{"id":"1201","ref":"3877040829","name":"Pelleport","lat":"48.868519","lng":"2.401352","passengers":"38"},"1200":{"id":"1200","ref":"380937225","name":"Pyramides","lat":"48.866947","lng":"2.333665","passengers":"534"},"1174":{"id":"1174","ref":"890688308","name":"Fort d'Aubervilliers","lat":"48.914692","lng":"2.404177","passengers":"363"},"1161":{"id":"1161","ref":"41893941","name":"Porte de la Chapelle","lat":"48.898071","lng":"2.359092","passengers":"360"},"1199":{"id":"1199","ref":"2960704645","name":"Saint-Denis-Porte de Paris","lat":"48.929626","lng":"2.357410","passengers":"369"},"1198":{"id":"1198","ref":"2274972608","name":"Mairie de Clichy","lat":"48.903660","lng":"2.305566","passengers":"724"},"1173":{"id":"1173","ref":"3871409354","name":"Kl\u00e9ber","lat":"48.871094","lng":"2.293079","passengers":"120"},"1197":{"id":"1197","ref":"2046468661","name":"Rambuteau","lat":"48.861401","lng":"2.353505","passengers":"471"},"1196":{"id":"1196","ref":"3427371663","name":"Michel-Ange-Molitor","lat":"48.844868","lng":"2.262048","passengers":"203"},"1172":{"id":"1172","ref":"2277425032","name":"Bobigny-Pantin (Raymond Queneau)","lat":"48.895267","lng":"2.424802","passengers":"236"},"1160":{"id":"1160","ref":"1100607264","name":"Ch\u00e2telet","lat":"48.858521","lng":"2.347119","passengers":"1517"},"1154":{"id":"1154","ref":"598631581","name":"Charles de Gaulle-Etoile","lat":"48.874409","lng":"2.295763","passengers":"943"},"1151":{"id":"1151","ref":"3833855042","name":"Pont de Levallois-B\u00e9con","lat":"48.897118","lng":"2.280489","passengers":"534"},"1195":{"id":"1195","ref":"1771918760","name":"Cardinal-Lemoine","lat":"48.846390","lng":"2.351478","passengers":"174"},"1194":{"id":"1194","ref":"1374784815","name":"Marcel Sembat","lat":"48.833916","lng":"2.244081","passengers":"611"},"1171":{"id":"1171","ref":"1465479446","name":"Simplon","lat":"48.894634","lng":"2.347091","passengers":"314"},"1193":{"id":"1193","ref":"125894007","name":"Boucicaut","lat":"48.841240","lng":"2.287634","passengers":"296"},"1192":{"id":"1192","ref":"3098817292","name":"Aubervilliers Pantin (4 Chemins)","lat":"48.903831","lng":"2.392022","passengers":"772"},"1170":{"id":"1170","ref":"2493342269","name":"Anatole-France","lat":"48.892471","lng":"2.285374","passengers":"389"},"1159":{"id":"1159","ref":"4152748969","name":"Boulogne Pont de Saint-Cloud","lat":"48.840797","lng":"2.228211","passengers":"304"},"1191":{"id":"1191","ref":"1950730894","name":"Boissi\u00e8re","lat":"48.867027","lng":"2.290474","passengers":"225"},"1190":{"id":"1190","ref":"2258265757","name":"Eglise de Pantin","lat":"48.893112","lng":"2.413286","passengers":"381"},"1169":{"id":"1169","ref":"475845330","name":"Victor Hugo","lat":"48.869671","lng":"2.285267","passengers":"416"},"1189":{"id":"1189","ref":"1282210726","name":"Marcadet-Poissonniers","lat":"48.890877","lng":"2.349837","passengers":"637"},"1188":{"id":"1188","ref":"3638581237","name":"Louise Michel","lat":"48.888828","lng":"2.288137","passengers":"340"},"1168":{"id":"1168","ref":"2920343104","name":"B\u00e9rault","lat":"48.845333","lng":"2.429238","passengers":"265"},"1158":{"id":"1158","ref":"1707647480","name":"Gare d'Austerlitz","lat":"48.843105","lng":"2.364313","passengers":"952"},"1153":{"id":"1153","ref":"2085226230","name":"Bobigny-Pablo-Picasso","lat":"48.906971","lng":"2.449621","passengers":"706"},"1187":{"id":"1187","ref":"3095607449","name":"Saint-Mand\u00e9","lat":"48.846298","lng":"2.418673","passengers":"627"},"1186":{"id":"1186","ref":"1463586519","name":"Danube","lat":"48.882023","lng":"2.392702","passengers":"71"},"1167":{"id":"1167","ref":"2610627973","name":"Pr\u00e9-Saint-Gervais","lat":"48.879936","lng":"2.399077","passengers":"47"},"1185":{"id":"1185","ref":"2738613188","name":"Jaur\u00e8s","lat":"48.882545","lng":"2.370232","passengers":"635"},"1184":{"id":"1184","ref":"2609365027","name":"Saint-Fargeau","lat":"48.871952","lng":"2.404858","passengers":"102"},"1166":{"id":"1166","ref":"2014137071","name":"Louis Blanc","lat":"48.881027","lng":"2.365557","passengers":"265"},"1157":{"id":"1157","ref":"3741637293","name":"Pont de S\u00e8vres","lat":"48.829594","lng":"2.230254","passengers":"457"},"1219":{"id":"1219","ref":"2269163997","name":"Gambetta","lat":"48.864834","lng":"2.398462","passengers":"796"},"1218":{"id":"1218","ref":"1840343478","name":"Carrefour-Pleyel","lat":"48.919456","lng":"2.343200","passengers":"289"},"1183":{"id":"1183","ref":"1065328272","name":"Madeleine","lat":"48.870064","lng":"2.325164","passengers":"778"},"1217":{"id":"1217","ref":"2450931568","name":"Porte de Clichy","lat":"48.894360","lng":"2.313738","passengers":"436"},"1216":{"id":"1216","ref":"3991952489","name":"Jules Joffrin","lat":"48.892452","lng":"2.344465","passengers":"460"},"1182":{"id":"1182","ref":"4215555989","name":"Basilique de Saint-Denis","lat":"48.936604","lng":"2.359415","passengers":"568"},"1165":{"id":"1165","ref":"2998612092","name":"Porte des Lilas","lat":"48.877071","lng":"2.406386","passengers":"409"},"1215":{"id":"1215","ref":"1917711411","name":"Arts-et-M\u00e9tiers","lat":"48.865292","lng":"2.356378","passengers":"405"},"1214":{"id":"1214","ref":"896555290","name":"Chardon-Lagache","lat":"48.844715","lng":"2.266542","passengers":"66"},"1181":{"id":"1181","ref":"10090157","name":"Gabriel-P\u00e9ri","lat":"48.916233","lng":"2.294924","passengers":"564"},"1213":{"id":"1213","ref":"3866913670","name":"Maubert-Mutualit\u00e9","lat":"48.849911","lng":"2.348503","passengers":"267"},"1212":{"id":"1212","ref":"729999544","name":"Porte de Saint-Cloud","lat":"48.837887","lng":"2.256803","passengers":"518"},"1180":{"id":"1180","ref":"2402899129","name":"Marx-Dormoy","lat":"48.890301","lng":"2.360206","passengers":"376"},"1164":{"id":"1164","ref":"552165531","name":"Saint-Lazare","lat":"48.875580","lng":"2.326186","passengers":"4915"},"1156":{"id":"1156","ref":"3305905320","name":"Balard","lat":"48.836273","lng":"2.278218","passengers":"447"},"1152":{"id":"1152","ref":"1225648642","name":"Porte de Clignancourt","lat":"48.897285","lng":"2.344779","passengers":"945"},"1150":{"id":"1150","ref":"3873492639","name":"Porte Dauphine (Mar\u00e9chal de Lattre de Tassigny)","lat":"48.871647","lng":"2.276648","passengers":"298"},"1149":{"id":"1149","ref":"2532042518","name":"Ch\u00e2teau de Vincennes","lat":"48.844536","lng":"2.439510","passengers":"510"}},"line":[{"ref":"2","name":"2","way":["3873492639","475845330","598631581","2334959990","2120950107","48157230","1282474756","1362116730","3265715605","3117275467","3614543683","244503826","1721597436","3487389407","2577613756","2738613188","1500021116","3987776330","2858233536","94248676","2503048334","3979953845","1227645826","3761260163","2893655003"],"trainset":8},{"ref":"3","name":"3","way":["3833855042","2493342269","3638581237","3412286137","4091065876","469044143","1126076862","1282474756","4013515236","552165531","645341577","73874293","3649286437","1152988904","1931254292","1213432453","1917711411","3514016666","891393435","1742862628","3830653061","2503048334","2269163997","3379773416","555784063"],"trainset":8},{"ref":"4","name":"4","way":["1225648642","1465479446","1282210726","1293807658","1721597436","2058569149","1393958362","2826028950","3300801987","1213432453","2358884938","606571514","1100607264","3711272335","1760224038","3715978556","977856475","590575000","604149420","44881418","175753322","4198886535","3519554763","515539346","4261791583","2025816120"],"trainset":8},{"ref":"5","name":"5","way":["2085226230","2277425032","2258265757","53962395","4198988390","4065628367","3907763713","2738613188","2577613756","2058569149","1393958362","1727514119","891393435","4122770022","1128226880","882992124","3398784409","3179893028","1707647480","2649549238","2540754978","224821915"],"trainset":8},{"ref":"6","name":"6","way":["598631581","3871409354","1950730894","20785767","2465875946","499775835","3129038787","2635662580","3875198686","2801003483","1450883263","44881418","2624477086","4198886535","3519554763","3616975530","3180795927","1490149880","224821915","1745152818","3494453711","2706513156","1194974051","946374679","3100228085","3549826816","2493371295","2893655003"],"trainset":8},{"ref":"7","name":"7","way":["37245713","890688308","3098817292","1033620933","635591290","882210155","2096931515","2577613756","2014137071","2692076464","1393958362","1876271269","2425224985","2696990795","1102200894","73874293","380937225","2924666242","2707323384","1100607264","986262698","2177031349","3882868379","3989473618","1202011076","1314938315","224821915","46216692","1826166775","188649288","941822868","4024543803","1673135790"],"trainset":8},{"ref":"7_f","name":"7","way":["37245713","890688308","3098817292","1033620933","635591290","882210155","2096931515","2577613756","2014137071","2692076464","1393958362","1876271269","2425224985","2696990795","1102200894","73874293","380937225","2924666242","2707323384","1100607264","986262698","2177031349","3882868379","3989473618","1202011076","1314938315","224821915","46216692","1826166775","3103087595","486421116","821130227","1338908274","3954096031"],"trainset":8},{"ref":"8","name":"8","way":["3305905320","4278050457","125894007","482278776","2688858633","2635662580","2496888016","4290789948","4225800166","2011584683","1065328272","73874293","3211140642","1561893142","3653339166","3300801987","891393435","1994114096","3566817926","4246083363","3398784409","3780921823","3930049404","3591610132","2346477303","3100228085","3702452106","3567429859","2398034976","3345569136","737890386","1322902301","2181002575","3246051268","673864223","562653801","3086704803"],"trainset":8},{"ref":"9","name":"9","way":["3741637293","351139424","1374784815","729999544","3499425610","3427371663","3253812998","2673577552","3164047331","1390530723","3217152725","20785767","4248981646","3224579423","2734436604","1836707069","3524584243","4197757394","645341577","1102200894","3211140642","1561893142","3653339166","3300801987","891393435","4122770022","1736981303","4158739832","3616461854","714987642","2893655003","3110610795","1360893278","129206825","3235782074","1867201487","1990381110"],"trainset":8},{"ref":"10","name":"10","way":["1707647480","3882868379","1771918760","3866913670","2932899145","3715978556","1098202862","2488289503","4012104432","2198512348","600722887","2635662580","560256723","3565805587","4025722812","3720819819","3253812998","2702846096","980642687","4152748969"],"trainset":8},{"ref":"11","name":"11","way":["1100607264","3827069729","2046468661","1917711411","891393435","3714063920","3987776330","637614763","3468280332","209994619","595945906","2998612092","2805226700"],"trainset":8},{"ref":"12","name":"12","way":["41893941","2402899129","1282210726","3991952489","3200465306","2075612487","3614543683","3838784219","3781035794","2009211090","552165531","1065328272","2011584683","2904169401","3481964895","2120668118","2488289503","695063120","3683962764","44881418","3475396030","1450883263","1162874157","1526455506","2050396911","2196409879","3332683073","87667279"],"trainset":8},{"ref":"13","name":"13","way":["271775302","10090157","2274972608","2450931568","65431437","3325830777","3265715605","618858167","552165531","3524584243","2669665705","4225800166","3411985938","697925458","2198512348","44881418","3789783956","2401493758","3690575038","675269737","642786040","3273349984","3332581557"],"trainset":8},{"ref":"13_f","name":"13","way":["3957216179","4215555989","2960704645","1840343478","3421576237","3691015742","1183318172","2974665047","3325830777","3265715605","618858167","552165531","3524584243","2669665705","4225800166","3411985938","697925458","2198512348","44881418","3789783956","2401493758","3690575038","675269737","642786040","3273349984","3332581557"],"trainset":8},{"ref":"14","name":"14","way":["552165531","1065328272","380937225","1100607264","3891613492","1194974051","2871016604","2535004149","2890651828"],"trainset":8},{"ref":"3bis","name":"3B","way":["2998612092","2609365027","3877040829","2269163997"],"trainset":8},{"ref":"7bis","name":"7B","way":["2014137071","2738613188","245371276","1569477485","1091103895","209994619","2610627973"],"trainset":8},{"ref":"1_r","name":"1","way":["1726955494","276344470","3504310849","259791766","3145751766","3566702934","598631581","2877706505","2734436604","2669665705","2011584683","2247827349","2924666242","3747807733","1100607264","3827069729","1877754383","3398784409","3891613492","3591610132","2893655003","1523019830","3095607449","2920343104","2532042518"],"trainset":8},{"ref":"2_r","name":"2","way":["2893655003","3761260163","1227645826","3979953845","2503048334","94248676","2858233536","3987776330","1500021116","2738613188","2577613756","3487389407","1721597436","244503826","3614543683","3117275467","3265715605","1362116730","1282474756","48157230","2120950107","2334959990","598631581","475845330","3873492639"],"trainset":8},{"ref":"3_r","name":"3","way":["555784063","3379773416","2269163997","2503048334","3830653061","1742862628","891393435","3514016666","1917711411","1213432453","1931254292","1152988904","3649286437","73874293","645341577","552165531","4013515236","1282474756","1126076862","469044143","4091065876","3412286137","3638581237","2493342269","3833855042"],"trainset":8},{"ref":"4_r","name":"4","way":["2025816120","4261791583","515539346","3519554763","4198886535","175753322","44881418","604149420","590575000","977856475","3715978556","1760224038","3711272335","1100607264","606571514","2358884938","1213432453","3300801987","2826028950","1393958362","2058569149","1721597436","1293807658","1282210726","1465479446","1225648642"],"trainset":8},{"ref":"5_r","name":"5","way":["224821915","2540754978","2649549238","1707647480","3179893028","3398784409","882992124","1128226880","4122770022","891393435","1727514119","1393958362","2058569149","2577613756","2738613188","3907763713","4065628367","4198988390","53962395","2258265757","2277425032","2085226230"],"trainset":8},{"ref":"6_r","name":"6","way":["2893655003","2493371295","3549826816","3100228085","946374679","1194974051","2706513156","3494453711","1745152818","224821915","1490149880","3180795927","3616975530","3519554763","4198886535","2624477086","44881418","1450883263","2801003483","3875198686","2635662580","3129038787","499775835","2465875946","20785767","1950730894","3871409354","598631581"],"trainset":8},{"ref":"7_r","name":"7","way":["1673135790","4024543803","941822868","188649288","1826166775","46216692","224821915","1314938315","1202011076","3989473618","3882868379","2177031349","986262698","1100607264","2707323384","2924666242","380937225","73874293","1102200894","2696990795","2425224985","1876271269","1393958362","2692076464","2014137071","2577613756","2096931515","882210155","635591290","1033620933","3098817292","890688308","37245713"],"trainset":8},{"ref":"7_f_r","name":"7","way":["3954096031","1338908274","821130227","486421116","3103087595","1826166775","46216692","224821915","1314938315","1202011076","3989473618","3882868379","2177031349","986262698","1100607264","2707323384","2924666242","380937225","73874293","1102200894","2696990795","2425224985","1876271269","1393958362","2692076464","2014137071","2577613756","2096931515","882210155","635591290","1033620933","3098817292","890688308","37245713"],"trainset":8},{"ref":"8_r","name":"8","way":["3086704803","562653801","673864223","3246051268","2181002575","1322902301","737890386","3345569136","2398034976","3567429859","3702452106","3100228085","2346477303","3591610132","3930049404","3780921823","3398784409","4246083363","3566817926","1994114096","891393435","3300801987","3653339166","1561893142","3211140642","73874293","1065328272","2011584683","4225800166","4290789948","2496888016","2635662580","2688858633","482278776","125894007","4278050457","3305905320"],"trainset":8},{"ref":"9_r","name":"9","way":["1990381110","1867201487","3235782074","129206825","1360893278","3110610795","2893655003","714987642","3616461854","4158739832","1736981303","4122770022","891393435","3300801987","3653339166","1561893142","3211140642","1102200894","645341577","4197757394","3524584243","1836707069","2734436604","3224579423","4248981646","20785767","3217152725","1390530723","3164047331","2673577552","3253812998","3427371663","3499425610","729999544","1374784815","351139424","3741637293"],"trainset":8},{"ref":"10_r","name":"10","way":["4152748969","980642687","2702846096","3253812998","3720819819","4025722812","3565805587","560256723","2635662580","600722887","2198512348","4012104432","2488289503","1098202862","3715978556","2932899145","3866913670","1771918760","3882868379","1707647480"],"trainset":8},{"ref":"11_r","name":"11","way":["2805226700","2998612092","595945906","209994619","3468280332","637614763","3987776330","3714063920","891393435","1917711411","2046468661","3827069729","1100607264"],"trainset":8},{"ref":"12_r","name":"12","way":["87667279","3332683073","2196409879","2050396911","1526455506","1162874157","1450883263","3475396030","44881418","3683962764","695063120","2488289503","2120668118","3481964895","2904169401","2011584683","1065328272","552165531","2009211090","3781035794","3838784219","3614543683","2075612487","3200465306","3991952489","1282210726","2402899129","41893941"],"trainset":8},{"ref":"13_r","name":"13","way":["3332581557","3273349984","642786040","675269737","3690575038","2401493758","3789783956","44881418","2198512348","697925458","3411985938","4225800166","2669665705","3524584243","552165531","618858167","3265715605","3325830777","65431437","2450931568","2274972608","10090157","271775302"],"trainset":8},{"ref":"13_f_r","name":"13","way":["3332581557","3273349984","642786040","675269737","3690575038","2401493758","3789783956","44881418","2198512348","697925458","3411985938","4225800166","2669665705","3524584243","552165531","618858167","3265715605","3325830777","2974665047","1183318172","3691015742","3421576237","1840343478","2960704645","4215555989","3957216179"],"trainset":8},{"ref":"14_r","name":"14","way":["2890651828","2535004149","2871016604","1194974051","3891613492","1100607264","380937225","1065328272","552165531"],"trainset":8},{"ref":"3bis_r","name":"3B","way":["2269163997","3877040829","2609365027","2998612092"],"trainset":8},{"ref":"7bis_r","name":"7B","way":["2610627973","209994619","1091103895","1569477485","245371276","2738613188","2014137071"],"trainset":8},{"ref":"1","name":"1","way":["2532042518","2920343104","3095607449","1523019830","2893655003","3591610132","3891613492","3398784409","1877754383","3827069729","1100607264","3747807733","2924666242","2247827349","2011584683","2669665705","2734436604","2877706505","598631581","3566702934","3145751766","259791766","3504310849","276344470","1726955494"],"trainset":8}],"trips":["2635662580|10|15:35:00|60|560256723|8913164320917608|54","3891613492|14|15:34:00|180|1100607264|22013095790912435|59","3211140642|8|15:38:00|60|73874293|18213094960795507|57","2635662580|10|15:36:00|60|560256723|13013164380296022|54","3305905320|8|15:34:00|60|4278050457|11713094950795505|54","3891613492|1|15:38:00|120|3398784409|22113092920912269|56","2503048334|2|15:37:00|120|3979953845|19613093810095484|54","3211140642|8|15:34:00|120|1561893142|17613094960795505|51","4013515236|3|15:36:00|60|1282474756|21013094000095500|59","2635662580|10|15:37:00|120|560256723|10413164400296022|54","380937225|7|15:36:00|60|2924666242|813094650651581|40","3305905320|8|15:35:00|60|4278050457|10113094880795505|54","2258265757|5|15:35:00|120|53962395|10413094320094711|59","3891613492|1|15:34:00|120|3398784409|21913092920912269|56","3549826816|6|15:37:00|60|3100228085|11313094440912370|55","2503048334|2|15:38:00|60|3979953845|14813093790095484|54","3616975530|6|15:38:00|60|3180795927|18213094540295944|57","3211140642|8|15:36:00|120|1561893142|10013094890795505|51","645341577|3|15:36:00|120|552165531|12013093980095500|57","4013515236|3|15:37:00|60|1282474756|20713093930095500|59","3987776330|11|15:35:00|120|3714063920|11813095430912409|57","2635662580|6|15:34:00|60|3875198686|10613094450295944|57","1721597436|4|15:38:00|120|2058569149|11713864000942709|55","380937225|7|15:37:00|60|2924666242|9313094590651562|40","980642687|10|15:37:00|120|3427371663|13713164360917606|52","3305905320|8|15:36:00|60|4278050457|10313094890795505|54","2920343104|1|15:36:00|120|3095607449|22413092920912269|55","2258265757|5|15:35:00|60|2277425032|11513094300912363|57","3991952489|12|15:34:00|60|1282210726|10413647210942699|58","3891613492|1|15:38:00|60|3591610132|21013092920912270|58","941822868|7|15:35:00|120|4024543803|5513094560651562|45","3549826816|6|15:38:00|120|3100228085|10713094450912370|55","3930049404|8|15:38:00|60|3780921823|17513094920795507|55","2503048334|2|15:35:00|120|94248676|11413093880095483|57","2858233536|2|15:36:00|60|3987776330|10813093750095483|58","1836707069|9|15:35:00|60|3524584243|2213095120912389|58","3224579423|9|15:36:00|120|2734436604|713095170912389|59","3211140642|8|15:37:00|60|1561893142|11413094950795505|51","73874293|8|15:36:00|120|1065328272|9513094940795507|58","645341577|3|15:37:00|60|552165531|10613093990095500|57","1213432453|4|15:34:00|120|3300801987|16913864020942711|52","4013515236|3|15:38:00|120|1282474756|13713093970095500|59","2577613756|2|15:37:00|120|2738613188|15113093790095484|58","3987776330|11|15:37:00|60|3714063920|313095530912412|57","1282474756|2|15:35:00|60|1362116730|10313093750095484|57","2635662580|6|15:35:00|60|3875198686|11113094440295944|57","65431437|13|15:34:00|60|2450931568|11613095680912413|49","1721597436|4|15:34:00|120|1293807658|16613864020942711|48","1917711411|11|15:37:00|120|2046468661|11713095420912409|57","380937225|7|15:38:00|60|2924666242|10213094610651562|40","1282210726|12|15:37:00|120|2402899129|14813647350942699|57","980642687|10|15:38:00|180|3427371663|12613164380917610|52","2998612092|3B|15:34:00|60|2609365027|12213094250651521|44","3305905320|8|15:37:00|60|4278050457|10113094940795505|54","1707647480|5|15:38:00|120|2649549238|10813094380094711|58","2610627973|7B|15:35:00|60|1463586519|8513094790651583|25","3827069729|11|15:36:00|0|1100607264|11013095440912409|53","2258265757|5|15:34:00|60|2277425032|10313094380912363|57","1091103895|7B|15:38:00|60|1569477485|8513094790651583|26","1917711411|3|15:38:00|60|1213432453|14013093970095500|56","2465875946|6|15:36:00|60|499775835|9713094430295944|57","3891613492|1|15:35:00|120|3591610132|10413092900095468|58","1360893278|9|15:36:00|120|129206825|17813095220912398|55","941822868|7|15:36:00|60|4024543803|613094670912383|45","4158739832|9|15:37:00|120|3616461854|18013095120912393|57","3549826816|6|15:35:00|60|2493371295|12113094500295944|54","1526455506|12|15:36:00|120|2050396911|17913647340942701|53","3930049404|8|15:36:00|120|3591610132|17213094960795505|55","642786040|13|15:38:00|120|3273349984|8713095630912423|47","2503048334|2|15:37:00|60|94248676|10913093750095483|57","3566702934|1|15:37:00|120|598631581|11013092900095468|59","2858233536|2|15:37:00|120|3987776330|21813093830912330|58","3514016666|3|15:37:00|120|891393435|13013093970912354|58","1836707069|9|15:36:00|120|3524584243|9313095090912393|58","1102200894|7|15:38:00|60|2696990795|6413094570651565|43","3224579423|9|15:37:00|60|2734436604|18613095120912393|59","3711272335|4|15:37:00|60|1100607264|10813864000942711|56","3211140642|8|15:38:00|120|1561893142|18513094970795505|51","44881418|6|15:38:00|120|2624477086|18013094460295944|57","73874293|8|15:37:00|60|1065328272|11313094950795507|58","595945906|11|15:38:00|120|2998612092|11713095420440174|57","645341577|3|15:38:00|120|552165531|18413093960095500|57","1390530723|9|15:35:00|120|3217152725|2313095120912389|58","1213432453|4|15:35:00|120|3300801987|10613864000942711|52","3164047331|9|15:34:00|60|1390530723|2313095120912389|57","4013515236|3|15:34:00|120|552165531|11713093980912354|59","560256723|10|15:36:00|60|2635662580|12213164410917606|54","2577613756|2|15:38:00|120|2738613188|10113093750095484|58","1183318172|13|15:38:00|120|3691015742|11713095680912414|47","3987776330|11|15:38:00|120|3714063920|11213095440912409|57","3129038787|6|15:34:00|60|499775835|18713094520912370|55","1282474756|2|15:36:00|60|1362116730|15513093790095484|57","2075612487|12|15:37:00|60|3200465306|9613647290942704|58","2635662580|6|15:36:00|60|3875198686|11013094510295944|57","469044143|3|15:36:00|60|4091065876|11813093980095500|59","65431437|13|15:35:00|60|2450931568|12713095590912413|49","352028051|10|15:37:00|120|4025722812|8313164370917610|54","1721597436|4|15:36:00|60|1293807658|10413864000942711|48","2893655003|1|15:34:00|120|1523019830|20713092920912270|58","1917711411|11|15:38:00|60|2046468661|11113095440912409|57","20785767|6|15:36:00|60|1950730894|113094460912371|56","3877040829|3B|15:34:00|60|2269163997|14813094290651521|45","1771918760|10|15:36:00|120|3882868379|11913164410917606|53","1282210726|12|15:38:00|120|2402899129|17313647340942699|57","1065328272|8|15:36:00|60|73874293|18513094970795505|56","3827069729|1|15:34:00|120|1877754383|21113092920912270|59","2277425032|5|15:36:00|240|2085226230|11513094300912363|57","2998612092|3B|15:36:00|60|2609365027|14913094260651521|44","1100607264|7|15:34:00|60|2707323384|10513094610651565|43","3305905320|8|15:38:00|60|4278050457|11813094950795505|54","2085226230|5|15:36:00|180|2277425032|19913094340094711|57","1707647480|5|15:34:00|120|2649549238|10713094380094711|58","3957216179|13|15:37:00|120|4215555989|12113095680912417|50","2610627973|7B|15:34:00|60|1463586519|11113094810651583|25","890688308|7|15:36:00|120|3098817292|10013094650651570|40","3827069729|11|15:35:00|60|1100607264|13413095500912409|53","2738613188|2|15:34:00|60|1500021116|14913093790095484|57","1282210726|4|15:37:00|120|1293807658|25513864010942709|54","3427371663|9|15:34:00|60|3253812998|10313095160912398|59","1091103895|7B|15:36:00|120|1569477485|11113094810651583|26","20785767|9|15:37:00|60|3217152725|9813095100912399|55","1917711411|3|15:36:00|60|1213432453|12213093980095500|56","2893655003|6|15:34:00|60|2493371295|17713094460912370|54","2465875946|6|15:34:00|60|499775835|12813094500295944|57","891393435|3|15:36:00|60|1742862628|11413093980912354|59","3891613492|1|15:34:00|60|3591610132|19413092970912277|58","3235782074|9|15:35:00|120|129206825|14513095180912399|55","1360893278|9|15:37:00|60|129206825|17013095150912393|55","1322902301|8|15:36:00|120|2181002575|16713094960795505|52","941822868|7|15:37:00|60|4024543803|9213094650651570|45","3616461854|9|15:37:00|60|714987642|9313095820912393|57","4158739832|9|15:38:00|120|3616461854|2313095190912389|57","3702452106|8|15:38:00|60|3100228085|11813094950795507|59","3549826816|6|15:36:00|60|2493371295|10113094450295944|54","3100228085|8|15:35:00|60|3702452106|17013094960795505|54","1526455506|12|15:37:00|60|2050396911|15113647350942701|53","3379773416|3|15:36:00|60|2269163997|10113093920095500|58","3930049404|8|15:37:00|120|3591610132|11113094950795505|55","3780921823|8|15:37:00|120|3930049404|18013094970795505|54","259791766|1|15:35:00|120|3504310849|21013092920912269|58","2540754978|5|15:37:00|60|2649549238|21913094390912363|57","2503048334|2|15:38:00|60|94248676|14513093860912348|57","1745152818|6|15:37:00|60|224821915|10513094450912370|53","3566702934|1|15:38:00|60|598631581|14113093000912283|59","2707323384|7|15:37:00|120|2924666242|10713094670912373|42","2858233536|2|15:38:00|60|3987776330|11413093880095483|58","1994114096|8|15:37:00|60|3566817926|9713094880795505|53","3514016666|3|15:38:00|60|891393435|10313093990912354|58","977856475|4|15:37:00|120|3715978556|17413864020942711|59","1836707069|9|15:37:00|60|3524584243|18513095120912393|58","2734436604|1|15:38:00|60|2877706505|20113092970912276|57","1102200894|9|15:35:00|60|3211140642|18313095120912393|58","1760224038|4|15:38:00|60|3711272335|23813864010942711|56","3224579423|9|15:38:00|120|2734436604|17813095150912393|59","4198886535|6|15:37:00|60|3519554763|17913094460295944|57","3711272335|4|15:35:00|60|1760224038|11213864000942709|54","3411985938|13|15:36:00|60|697925458|11713095680912416|51","3211140642|9|15:34:00|60|1102200894|12513095170912399|57","3649286437|3|15:35:00|120|73874293|18413093960095500|57","1876271269|7|15:34:00|120|1393958362|5813094560651565|44","44881418|12|15:36:00|60|3475396030|17713647260942701|56","73874293|8|15:38:00|60|1065328272|17113094920795507|58","244503826|2|15:35:00|120|1721597436|15213093790095484|57","2669665705|1|15:34:00|120|2011584683|20413093030912289|58","1450883263|12|15:35:00|60|3475396030|12413647310942699|58","645341577|3|15:34:00|120|73874293|10413093990912354|59","2009211090|12|15:35:00|60|3781035794|10613647210942699|58","1390530723|9|15:37:00|120|3217152725|17913095150912393|58","2011584683|1|15:37:00|120|2247827349|10813092900095468|59","1213432453|4|15:36:00|60|3300801987|23413864010942711|52","3781035794|12|15:36:00|60|2009211090|18113647260942701|58","3164047331|9|15:35:00|120|1390530723|19013095220912398|57","3300801987|9|15:38:00|120|891393435|17413095190912398|57","4013515236|3|15:35:00|120|552165531|13313093970912354|59","618858167|13|15:35:00|120|552165531|6713095550912416|48","560256723|10|15:37:00|60|2635662580|13513164360917606|54","4290789948|8|15:36:00|60|2496888016|16913094920795507|56","2577613756|2|15:34:00|60|3487389407|10613093750095483|58","3398784409|8|15:35:00|60|3780921823|11113094950795505|55","2871016604|14|15:34:00|120|2535004149|23613164430912430|59","3614543683|2|15:35:00|120|3117275467|10513093750095483|56","3987776330|11|15:34:00|60|637614763|11713095420440174|56","3253812998|10|15:37:00|120|2702846096|8913164340917608|54","3129038787|6|15:35:00|120|499775835|13313094550912370|55","1393958362|4|15:38:00|60|2826028950|25213864010942709|52","1282474756|2|15:37:00|60|1362116730|21913093760095484|57","1194974051|14|15:37:00|120|2871016604|18313164420912430|59","2075612487|12|15:38:00|120|3200465306|18713647320942699|58","3715978556|4|15:35:00|60|977856475|24513864010942709|56","2635662580|6|15:37:00|60|3875198686|12813094500295944|57","4065628367|5|15:38:00|60|4198988390|19213094340912363|56","469044143|3|15:37:00|60|4091065876|20913094000095500|59","3591610132|1|15:35:00|120|2893655003|20813092920912270|58","65431437|13|15:36:00|120|2450931568|6513095550912413|49","891393435|8|15:35:00|120|3300801987|17213094920795507|57","352028051|10|15:38:00|60|4025722812|8313164330917606|54","635591290|7|15:38:00|60|1033620933|6713094630912379|42","1721597436|4|15:37:00|60|1293807658|16713864020942711|48","2120950107|2|15:36:00|60|2334959990|10313093750095483|56","2893655003|1|15:35:00|120|1523019830|10313092900095468|58","2450931568|13|15:36:00|120|65431437|7413095620912423|50","1917711411|11|15:34:00|60|891393435|11813095420440174|56","482278776|8|15:34:00|60|2688858633|10013094880795505|57","20785767|6|15:37:00|60|1950730894|113094480912371|56","2334959990|2|15:36:00|60|2120950107|20313093810095484|58","3877040829|3B|15:35:00|60|2269163997|14813094260651521|45","2274972608|13|15:37:00|180|10090157|11613095680912413|49","1771918760|10|15:38:00|60|3882868379|13613164390917606|53","3098817292|7|15:34:00|120|1033620933|7913094660651570|40","1282210726|12|15:34:00|60|3991952489|10813647210942701|56","2738613188|5|15:37:00|120|3907763713|13213094370912363|57","1065328272|8|15:37:00|60|73874293|17813094960795505|56","10090157|13|15:36:00|60|271775302|12613095590912413|47","3827069729|1|15:35:00|120|1877754383|20013093030912289|59","351139424|9|15:37:00|60|3741637293|8813095090912395|58","2277425032|5|15:37:00|180|2085226230|12913094370912363|57","475845330|2|15:38:00|120|598631581|22313093760095484|55","2998612092|3B|15:37:00|60|2609365027|10113094270651521|44","552165531|13|15:38:00|120|618858167|6613095550912413|52","1100607264|7|15:35:00|60|2707323384|10113094650912379|43","1100607264|1|15:37:00|60|3747807733|21713092920912269|57","3741637293|9|15:34:00|60|351139424|18213095150912393|57","598631581|2|15:37:00|60|2334959990|20413093810095484|54","2085226230|5|15:37:00|180|2277425032|11513094380094711|57","3873492639|2|15:35:00|120|475845330|11113093880912351|58","1707647480|5|15:38:00|60|3179893028|12313094300912363|59","1100607264|14|15:38:00|120|380937225|18413164420912435|59","3957216179|13|15:36:00|120|4215555989|7713095580912424|50","552165531|3|15:37:00|60|4013515236|13713093970095500|56","2014137071|7B|15:37:00|60|2738613188|8313094790651584|33","2493342269|3|15:38:00|120|3833855042|18313094020095500|58","890688308|7|15:35:00|120|3098817292|6013094560651562|40","3882868379|10|15:38:00|60|1707647480|11913164410917606|51","3827069729|11|15:37:00|60|2046468661|13913095500440174|58","1065328272|12|15:36:00|120|2011584683|15613647350942701|56","2609365027|3B|15:37:00|60|3877040829|14913094260651521|45","3095607449|1|15:37:00|120|1523019830|21113092970912276|59","1282210726|4|15:36:00|60|1293807658|11713864000942709|54","125894007|8|15:34:00|120|482278776|613094970912387|55","3427371663|9|15:38:00|60|3499425610|19913095220912399|58","380937225|14|15:34:00|60|1065328272|18213164420912435|59","1091103895|7B|15:36:00|60|209994619|8213094790651584|36","1293807658|4|15:36:00|60|1282210726|16613864020942711|49","20785767|9|15:35:00|60|3217152725|20113095220912399|55","729999544|9|15:36:00|120|3499425610|18113095150912393|58","1917711411|3|15:35:00|60|1213432453|18813094020095500|56","2269163997|3|15:37:00|120|3379773416|19213093930912354|59","2893655003|2|15:37:00|120|3761260163|11613093880095483|58","4091065876|3|15:38:00|60|469044143|17713093960912354|58","4198988390|5|15:38:00|120|4065628367|10413094320094711|58","3499425610|9|15:35:00|60|3427371663|18013095150912393|59","891393435|3|15:35:00|60|1742862628|10213093990912354|59","891393435|9|15:37:00|60|3300801987|20513095120912395|55","3421576237|13|15:36:00|120|3691015742|7413095620912424|53","1867201487|9|15:35:00|60|1990381110|16813095150912393|55","3235782074|9|15:36:00|120|129206825|10513095100912399|55","129206825|9|15:36:00|60|1360893278|10013095820912395|56","1360893278|9|15:38:00|60|129206825|8913095090912393|55","1673135790|7|15:37:00|60|4024543803|6213094560651565|43","1322902301|8|15:37:00|120|2181002575|11813094980795505|52","737890386|8|15:36:00|120|3345569136|10013094940795507|59","941822868|7|15:35:00|60|188649288|11113094670912379|47","3345569136|8|15:36:00|60|737890386|16813094960795505|56","3616461854|9|15:38:00|60|714987642|17213095150912393|57","1826166775|7|15:37:00|60|46216692|10013094590651565|44","4158739832|9|15:35:00|60|1736981303|20613095120912395|56","46216692|7|15:38:00|60|1826166775|6613094630912376|41","1736981303|9|15:35:00|60|4158739832|17213095150912393|58","2196409879|12|15:38:00|120|2050396911|17813647260942699|58","3549826816|6|15:37:00|60|2493371295|10513094510295944|54","2346477303|8|15:36:00|60|3100228085|11013094950795505|54","3100228085|8|15:37:00|60|3702452106|11013094950795505|54","4261791583|4|15:37:00|60|515539346|24313864010942711|57","1526455506|12|15:38:00|60|2050396911|18713647280942701|53","946374679|6|15:37:00|60|3100228085|17813094540295944|57","3379773416|3|15:37:00|120|2269163997|12513093980095500|58","276344470|1|15:37:00|120|1726955494|13713093000912282|58","3930049404|8|15:38:00|60|3591610132|17213094910795505|55","3504310849|1|15:38:00|120|259791766|22113092920912270|59","3780921823|8|15:38:00|60|3930049404|12113094980795505|54","2706513156|6|15:36:00|120|1194974051|10613094510295944|56","259791766|1|15:36:00|120|3504310849|1613092970912259|58","3475396030|12|15:35:00|60|44881418|18113647340942699|56","2540754978|5|15:38:00|60|2649549238|14413094420912363|57","3830653061|3|15:38:00|120|2503048334|11413093980912354|58","2503048334|3|15:35:00|120|2269163997|19213093930912354|59","675269737|13|15:38:00|60|642786040|12813095640912423|45","1745152818|6|15:38:00|120|224821915|12713094500912370|53","1742862628|3|15:38:00|60|3830653061|19413093930912354|58","3566702934|1|15:35:00|120|3145751766|21113092920912269|57","3683962764|12|15:38:00|60|44881418|9913647230942707|54","2707323384|7|15:38:00|120|2924666242|10513094610912373|42","224821915|6|15:37:00|60|1745152818|10713094510295944|57","2858233536|2|15:35:00|60|94248676|14813093790095484|58","695063120|12|15:37:00|60|2488289503|10913647210942699|59","1994114096|8|15:38:00|60|3566817926|12213094980795505|53","3179893028|5|15:38:00|120|3398784409|20013094400912363|59","590575000|4|15:35:00|60|604149420|24413864010942709|54","3789783956|13|15:38:00|120|44881418|12013095680912413|55","977856475|4|15:38:00|60|3715978556|23913864010942711|59","2120668118|12|15:38:00|60|2488289503|10513647210942701|57","1836707069|9|15:38:00|60|3524584243|17713095150912393|58","882992124|5|15:35:00|60|1128226880|19713094400912363|58","2734436604|9|15:35:00|120|3224579423|20013095120912395|57","3653339166|9|15:35:00|60|3300801987|2013095150912389|58","1102200894|9|15:36:00|60|3211140642|17513095190912398|58","3519554763|6|15:35:00|60|4198886535|213094460912371|58","1128226880|5|15:35:00|120|4122770022|10813094380912363|58","1931254292|3|15:35:00|60|1213432453|10313093990912354|58","2904169401|12|15:35:00|60|2011584683|17213647260942699|57","1561893142|8|15:37:00|60|3211140642|18213094960795507|57","4198886535|6|15:38:00|60|3519554763|10513094450295944|57","4122770022|9|15:37:00|60|1736981303|17313095150912393|57","3711272335|4|15:36:00|60|1760224038|17813864020942709|54","3487389407|2|15:38:00|60|2577613756|13413093860912349|58","3411985938|13|15:37:00|60|697925458|11813095660912423|51","4248981646|9|15:35:00|60|3224579423|713095170912389|60","3211140642|9|15:35:00|60|1102200894|9613095820912395|57","2624477086|6|15:37:00|60|4198886535|11013094440295944|56","3649286437|3|15:36:00|60|73874293|13813093970095500|57","2924666242|1|15:35:00|120|2247827349|21513092920912269|58","1876271269|7|15:35:00|120|1393958362|10513094670912379|44","44881418|4|15:37:00|60|175753322|17513864020942709|56","44881418|12|15:37:00|60|3475396030|18113647340942701|56","1727514119|5|15:36:00|60|1393958362|10713094380912363|57","73874293|8|15:35:00|60|3211140642|10013094890795505|55","73874293|3|15:36:00|60|645341577|10613093990095500|57","244503826|2|15:36:00|120|1721597436|21513093760095484|57","2669665705|13|15:35:00|120|3524584243|11813095680912413|54","2669665705|1|15:35:00|120|2011584683|21513092920912270|58","3217152725|9|15:37:00|120|1390530723|12213095170912399|57","1450883263|12|15:36:00|120|3475396030|11013647210942699|58","2358884938|4|15:35:00|60|606571514|17913864020942709|54","645341577|3|15:35:00|60|73874293|13213093970912354|59","3524584243|13|15:36:00|60|2669665705|12913095590912416|48","2009211090|12|15:36:00|60|3781035794|18813647320942699|58","2198512348|13|15:34:00|60|44881418|7213095560912416|44","1390530723|9|15:38:00|120|3217152725|18813095120912393|58","2011584683|12|15:38:00|60|2904169401|15613647350942701|56","2011584683|1|15:38:00|60|2247827349|20013092970912277|59","2801003483|6|15:37:00|60|1450883263|10613094450295944|56","1213432453|4|15:37:00|60|3300801987|17013864020942711|52","3117275467|2|15:38:00|60|3265715605|20513093810912330|56","3781035794|12|15:37:00|60|2009211090|10713647210942701|58","4012104432|10|15:36:00|120|2488289503|8113164370917610|55","3164047331|9|15:36:00|60|1390530723|17913095150912393|57","4225800166|13|15:34:00|60|2669665705|11813095680912413|54","3875198686|6|15:34:00|60|2801003483|18413094540295944|57","3300801987|8|15:37:00|60|3653339166|17213094920795507|57","4013515236|3|15:36:00|120|552165531|10513093990912354|59","2535004149|14|15:36:00|120|2871016604|18613164420912435|59","618858167|13|15:36:00|120|552165531|7313095620912423|48","637614763|11|15:38:00|60|3468280332|13713095500440174|55","560256723|10|15:38:00|120|2635662580|9413164340917610|54","2488289503|10|15:34:00|60|4012104432|9013164320917608|51","4290789948|8|15:37:00|60|2496888016|17913094960795507|56","2577613756|7|15:36:00|60|2096931515|10413094670912379|44","2577613756|2|15:35:00|60|3487389407|20713093810912330|58","1362116730|2|15:36:00|60|1282474756|10413093750095483|56","3398784409|8|15:36:00|60|3780921823|18013094970795505|55","3398784409|1|15:35:00|180|3891613492|21013092920912270|58","2871016604|14|15:35:00|60|2535004149|21713095800912430|59","3265715605|2|15:36:00|60|3117275467|15413093790095484|56","3614543683|2|15:36:00|120|3117275467|20513093810912330|56","3614543683|12|15:35:00|60|3838784219|10713647210942701|56","3987776330|11|15:35:00|120|637614763|11213095490440174|56","1098202862|10|15:34:00|60|3715978556|8013164330917606|52","3253812998|10|15:38:00|60|2702846096|14113164360296022|54","2096931515|7|15:36:00|60|2577613756|513094590912377|42","3129038787|6|15:36:00|60|499775835|10613094510912370|55","1393958362|7|15:34:00|60|1876271269|10313094610651562|45","1393958362|5|15:34:00|120|1727514119|813094390912366|58","1126076862|3|15:38:00|60|469044143|10513093990095500|57","1282474756|2|15:38:00|60|1362116730|213093810912326|57","209994619|11|15:34:00|60|3468280332|11813095420912409|55","1194974051|14|15:38:00|120|2871016604|23813164430912430|59","3691015742|13|15:36:00|60|1183318172|13113095590912417|49","3325830777|13|15:34:00|120|3265715605|7413095560912416|46","3714063920|11|15:36:00|60|3987776330|13713095500440174|57","3715978556|4|15:36:00|60|977856475|17713864020942709|56","2635662580|8|15:38:00|120|2496888016|613094970912387|52","2635662580|6|15:38:00|60|3875198686|14213094550295944|57","882210155|7|15:34:00|60|635591290|5713094560651565|44","4065628367|5|15:34:00|120|3907763713|11213094380094711|58","2058569149|4|15:38:00|120|1393958362|18313864020942709|55","469044143|3|15:38:00|60|4091065876|20613093930095500|59","3591610132|8|15:36:00|60|2346477303|9513094940795505|55","3591610132|1|15:36:00|120|2893655003|19713093030912289|58","3891613492|1|15:35:00|120|3398784409|11113092900912257|56","65431437|13|15:38:00|60|2450931568|11813095660912419|49","891393435|9|15:37:00|60|4122770022|17313095190912398|58","891393435|8|15:36:00|120|3300801987|18913094970795507|57","891393435|3|15:35:00|60|3514016666|14013093970095500|56","891393435|11|15:34:00|60|1917711411|11713095430912409|53","3499425610|9|15:34:00|60|729999544|19513095120912395|58","2688858633|8|15:34:00|60|482278776|12313094980795507|55","2465875946|6|15:38:00|60|499775835|11113094510295944|57","1721597436|4|15:38:00|60|1293807658|24213864030942711|48","4091065876|3|15:37:00|60|3412286137|11813093980095500|59","2120950107|2|15:37:00|60|2334959990|13713093860912348|56","2893655003|6|15:36:00|60|2493371295|10713094450912370|54","2893655003|1|15:36:00|60|1523019830|13513093000912283|58","2269163997|3|15:34:00|120|2503048334|18813093960095500|58","2450931568|13|15:37:00|60|65431437|6813095550912416|50","3991952489|12|15:35:00|60|1282210726|11913647310942699|58","1917711411|11|15:35:00|60|891393435|20413095530440174|56","3866913670|10|15:35:00|60|2932899145|9113164320917608|52","482278776|8|15:35:00|60|2688858633|10013094940795505|57","1033620933|7|15:34:00|120|3098817292|6213094570651565|45","20785767|6|15:38:00|60|1950730894|18713094520912370|56","1293807658|4|15:38:00|60|1282210726|16713864020942711|49","2334959990|2|15:37:00|60|2120950107|15713093790095484|58","1523019830|1|15:34:00|120|3095607449|21413093010912285|58","3877040829|3B|15:36:00|60|2269163997|12213094250651521|45","380937225|14|15:36:00|60|1065328272|21913095790912435|59","2274972608|13|15:38:00|180|10090157|12713095590912413|49","3427371663|9|15:35:00|60|3253812998|18213095190912398|59","1771918760|10|15:34:00|60|3866913670|10613164400296022|54","125894007|8|15:35:00|60|482278776|17813094910795505|55","3098817292|7|15:35:00|120|1033620933|10513094610651562|40","2258265757|5|15:36:00|120|2277425032|13413094420912363|57","1282210726|12|15:35:00|120|3991952489|10313647290942700|56","3095607449|1|15:36:00|60|2920343104|21413093010912285|58","2738613188|5|15:38:00|60|3907763713|11813094300912363|57","2738613188|2|15:36:00|60|1500021116|10013093750095484|57","1065328272|8|15:38:00|120|73874293|513094970912387|56","1065328272|12|15:38:00|120|2011584683|10113647290942700|56","10090157|13|15:37:00|120|271775302|12713095640912419|47","3827069729|11|15:38:00|0|1100607264|11713095430912409|53","3827069729|1|15:36:00|60|1877754383|13713093000912283|59","3882868379|7|15:35:00|120|2177031349|6513094570651565|44","351139424|9|15:38:00|60|3741637293|18413095150912395|58","890688308|7|15:37:00|120|3098817292|10613094610651562|40","2277425032|5|15:38:00|180|2085226230|13413094420912363|57","1465479446|4|15:35:00|60|1282210726|11713864000942709|53","475845330|2|15:34:00|120|3873492639|20513093830912330|56","2610627973|7B|15:38:00|60|1463586519|12213094800651583|25","2014137071|7|15:34:00|120|2692076464|9513094590651562|47","552165531|3|15:34:00|60|645341577|13213093970912354|57","552165531|13|15:34:00|120|3524584243|12913095590912416|48","3957216179|13|15:38:00|60|4215555989|7613095560912417|50","1100607264|7|15:36:00|60|2707323384|10713094670912373|43","1100607264|4|15:34:00|60|3711272335|11213864000942709|54","1100607264|1|15:38:00|120|3747807733|11013092900912257|57","1707647480|5|15:35:00|120|2649549238|613094390912366|58","3741637293|9|15:35:00|60|351139424|10513095160912398|57","598631581|6|15:35:00|120|3871409354|18813094540295944|57","598631581|2|15:38:00|60|2334959990|10513093750095484|54","598631581|1|15:35:00|60|3566702934|10613092900912257|57","2085226230|5|15:38:00|180|2277425032|14813094420094711|57","3833855042|3|15:38:00|60|2493342269|12113093980912354|59","3873492639|2|15:36:00|60|475845330|20513093810095484|58","37245713|7|15:37:00|120|890688308|10713094610651563|37","1707647480|5|15:36:00|60|3179893028|13713094370912363|59","1100607264|1|15:36:00|60|3747807733|14213093000912282|57","1100607264|14|15:37:00|120|380937225|22013095790912435|59","1100607264|7|15:37:00|120|986262698|10113094610651562|39","3957216179|13|15:34:00|120|4215555989|12413095660912424|50","552165531|13|15:36:00|60|618858167|11913095660912419|52","552165531|3|15:35:00|60|4013515236|21013094000095500|56","2998612092|11|15:35:00|120|595945906|11913095420912409|57","2014137071|7B|15:36:00|120|2738613188|8313094820651584|33","475845330|2|15:37:00|120|598631581|20513093810095484|55","2493342269|3|15:37:00|120|3833855042|11713093980095500|58","2277425032|5|15:34:00|180|2085226230|12813094370912363|57","890688308|7|15:38:00|120|37245713|6213094570651565|46","351139424|9|15:35:00|60|3741637293|19613095220912399|58","3882868379|10|15:35:00|120|1707647480|9013164340917610|51","980642687|10|15:37:00|60|4152748969|8813164340917608|51","3827069729|11|15:36:00|60|2046468661|20013095460912411|58","10090157|13|15:34:00|60|271775302|12613095640912419|47","1065328272|12|15:34:00|120|2011584683|10013647230942707|56","1065328272|14|15:37:00|60|552165531|21913095790912435|40","2609365027|3B|15:35:00|60|3877040829|12213094250651521|45","2738613188|5|15:37:00|60|2577613756|11213094380094711|59","3095607449|1|15:36:00|60|1523019830|11313092900912257|59","3638581237|3|15:37:00|120|3412286137|10713093990912354|55","1282210726|4|15:37:00|0|1465479446|16613864020942711|51","1950730894|6|15:38:00|120|20785767|13013094500295944|56","125894007|8|15:38:00|60|4278050457|16813094920795507|56","1771918760|10|15:34:00|60|3882868379|9013164340917610|53","3427371663|9|15:36:00|60|3499425610|19613095120912395|58","2274972608|13|15:35:00|120|10090157|8613095650912419|49","2960704645|13|15:37:00|120|1840343478|13313095590912417|49","380937225|7|15:37:00|120|73874293|6913094630912379|42","1091103895|7B|15:35:00|60|209994619|8213094820651584|36","2334959990|2|15:34:00|60|2120950107|213093810912326|58","3412286137|3|15:38:00|60|4091065876|12013093980912354|59","53962395|5|15:36:00|60|4198988390|413094340912366|58","20785767|9|15:34:00|120|3217152725|18713095150912395|55","482278776|8|15:35:00|60|125894007|12313094980795507|55","729999544|9|15:35:00|60|3499425610|14213095180912398|58","896555290|10|15:37:00|60|352028051|8313164330917606|53","1917711411|3|15:37:00|60|3514016666|10313093990912354|57","2450931568|13|15:38:00|120|2274972608|6513095550912413|50","2269163997|3|15:35:00|120|3379773416|1613093960912353|59","1569477485|7B|15:35:00|60|1091103895|8213094790651584|35","2893655003|2|15:36:00|120|3761260163|21313093810912330|58","2893655003|9|15:37:00|60|3110610795|2413095220912389|58","4091065876|3|15:37:00|60|469044143|20413094000912354|58","1721597436|2|15:37:00|60|244503826|10613093750095483|56","4198988390|5|15:35:00|60|4065628367|613094400912366|58","635591290|7|15:34:00|120|1033620933|10313094670912379|42","3499425610|9|15:34:00|60|3427371663|18213095190912398|59","2932899145|10|15:37:00|60|3866913670|9813164400917614|53","891393435|11|15:37:00|120|3714063920|13813095500440174|55","891393435|5|15:35:00|120|4122770022|14013094420094711|58","891393435|9|15:34:00|120|3300801987|20413095120912395|55","3200465306|12|15:34:00|60|2075612487|10213647290942700|58","3421576237|13|15:35:00|120|3691015742|12213095660912424|53","3086704803|8|15:35:00|120|562653801|18213094920795507|57","1867201487|9|15:36:00|60|1990381110|2313095220912389|55","562653801|8|15:36:00|120|3086704803|17113094970795505|52","3235782074|9|15:37:00|120|129206825|19713095150912395|55","673864223|8|15:36:00|120|3246051268|10513094880795507|58","129206825|9|15:37:00|60|1360893278|14513095180912399|56","3246051268|8|15:37:00|120|2181002575|18713094910795507|57","1360893278|9|15:36:00|60|3110610795|10413095100912399|55","2181002575|8|15:37:00|120|3246051268|16813094910795505|55","1338908274|7|15:35:00|120|821130227|11113094670912373|43","3110610795|9|15:38:00|120|2893655003|10013095820912395|55","1322902301|8|15:38:00|120|2181002575|10813094950795505|52","821130227|7|15:35:00|60|1338908274|613094610912380|41","737890386|8|15:37:00|120|3345569136|17913094920795507|59","486421116|7|15:37:00|60|3103087595|10013094590912373|46","941822868|7|15:36:00|120|188649288|10913094610651565|47","714987642|9|15:36:00|60|3616461854|10313095100912399|57","3345569136|8|15:37:00|120|737890386|9213094870795505|56","3103087595|7|15:36:00|60|1826166775|10413094650912373|44","188649288|7|15:35:00|120|941822868|9213094650651570|41","2398034976|8|15:37:00|60|3567429859|10213094890795507|54","1826166775|7|15:38:00|120|46216692|11113094670912379|44","1826166775|7|15:35:00|60|3103087595|9113094590651563|40","4158739832|9|15:37:00|120|1736981303|19413095150912395|56","3567429859|8|15:38:00|60|2398034976|17013094960795505|54","46216692|7|15:35:00|120|224821915|11013094670912379|46","3332683073|12|15:37:00|120|2196409879|15913647350942699|59","1736981303|9|15:36:00|60|4158739832|18013095120912393|58","2493371295|6|15:38:00|60|3549826816|11213094510912370|56","2493371295|6|15:35:00|60|2893655003|10513094440295944|58","1314938315|7|15:37:00|60|1202011076|8013094660912379|47","3549826816|6|15:38:00|60|2493371295|10613094440295944|54","2050396911|12|15:37:00|120|2196409879|19113647320942701|55","2346477303|8|15:37:00|60|3100228085|12013094980795505|54","1202011076|7|15:37:00|120|1314938315|9413094650651570|43","3100228085|8|15:38:00|60|3702452106|12013094980795505|54","3100228085|6|15:35:00|60|946374679|313094460912371|58","4261791583|4|15:38:00|60|515539346|17813864020942711|57","1726955494|1|15:38:00|60|276344470|20713092970912277|59","1526455506|12|15:35:00|60|1162874157|17613647260942699|57","3989473618|7|15:37:00|60|1202011076|6613094630651570|41","946374679|6|15:38:00|60|3100228085|10213094450295944|57","515539346|4|15:37:00|60|4261791583|17313864020942709|53","3379773416|3|15:38:00|120|2269163997|11013093990095500|58","3761260163|2|15:37:00|60|1227645826|11013093750095483|58","276344470|1|15:38:00|60|1726955494|19813092970912276|58","1162874157|12|15:38:00|60|1526455506|9813647230942707|55","1162874157|12|15:35:00|60|1450883263|11013647210942699|58","1227645826|2|15:38:00|60|3761260163|14713093790095484|56","3504310849|1|15:35:00|60|276344470|1513092970912259|58","3273349984|13|15:35:00|60|3332581557|7113095580912424|48","3780921823|8|15:35:00|60|3398784409|18513094960795507|56","2177031349|7|15:38:00|120|3882868379|10113094610651563|45","2706513156|6|15:37:00|60|1194974051|10713094440295944|56","3979953845|2|15:37:00|60|1227645826|14713093790095484|57","259791766|1|15:38:00|120|3504310849|21113092920912269|58","642786040|13|15:35:00|120|675269737|7513095620912419|54","3475396030|12|15:36:00|120|44881418|12413647310942699|56","986262698|7|15:36:00|120|1100607264|10813094670912379|46","3494453711|6|15:35:00|60|1745152818|11113094440912370|54","175753322|4|15:38:00|60|4198886535|17513864020942709|56","175753322|4|15:35:00|60|44881418|11013864000942711|57","3830653061|3|15:35:00|60|1742862628|12313093980095500|58","2503048334|3|15:36:00|120|2269163997|11313093980912354|59","3145751766|1|15:38:00|60|3566702934|20413092970912277|59","675269737|13|15:35:00|60|3690575038|7513095560912413|53","4246083363|8|15:35:00|120|3566817926|17313094920795507|58","1745152818|6|15:35:00|60|3494453711|12313094500295944|56","2649549238|5|15:38:00|60|2540754978|413094400912366|57","1742862628|3|15:35:00|120|891393435|10813093990095500|57","94248676|2|15:35:00|60|2858233536|10813093750095483|58","3566702934|1|15:36:00|120|3145751766|10613092900912257|57","3690575038|13|15:38:00|60|675269737|11613095680912416|47","3683962764|12|15:35:00|60|695063120|18013647340942699|58","3566817926|8|15:35:00|60|1994114096|9913094890795507|58","2707323384|7|15:35:00|60|1100607264|313094660912383|39","224821915|7|15:38:00|60|46216692|5613094560651562|43","224821915|6|15:35:00|60|1490149880|17613094540912370|58","604149420|4|15:37:00|60|590575000|11013864000942711|51","2858233536|2|15:36:00|60|94248676|21013093760095484|58","2401493758|13|15:37:00|60|3690575038|12813095640912424|46","695063120|12|15:38:00|60|2488289503|15513647350942699|59","4197757394|9|15:38:00|60|3524584243|12513095170912399|57","4197757394|9|15:35:00|60|645341577|17513095150912393|58","1490149880|6|15:38:00|120|224821915|10413094450295944|56","1490149880|6|15:35:00|60|3180795927|11013094440912370|59","3179893028|5|15:35:00|60|1707647480|13613094370094711|58","590575000|4|15:36:00|60|604149420|11113864000942709|54","2877706505|1|15:38:00|60|2734436604|22713093010912285|59","2877706505|1|15:35:00|120|598631581|21713844180955497|57","3789783956|13|15:35:00|60|2401493758|11613095680912416|43","3180795927|6|15:35:00|120|3616975530|12513094500912370|54","1500021116|2|15:38:00|120|2738613188|10813093750095483|58","1500021116|2|15:35:00|60|3987776330|14913093790095484|57","2120668118|12|15:35:00|60|3481964895|10813647210942699|56","1836707069|9|15:35:00|60|2734436604|20313095220912399|54","3616975530|6|15:35:00|120|3519554763|19013094520912370|58","882992124|5|15:36:00|60|1128226880|12113094300912363|58","3481964895|12|15:35:00|120|2904169401|15313647350942699|57","2734436604|9|15:36:00|120|3224579423|20313095220912399|57","2734436604|1|15:35:00|120|2669665705|22513093010912285|59","3653339166|9|15:36:00|60|3300801987|18213095120912393|58","3653339166|8|15:36:00|60|3300801987|18313094970795505|54","1102200894|9|15:37:00|120|3211140642|17513095150912393|58","1102200894|7|15:35:00|60|73874293|10213094610651562|42","3519554763|6|15:36:00|60|4198886535|13513094550912370|58","3519554763|4|15:35:00|60|515539346|25313864030942709|53","1128226880|5|15:36:00|120|4122770022|19713094400912363|58","1760224038|4|15:35:00|60|3715978556|17713864020942709|55","1931254292|3|15:36:00|120|1213432453|1813093930912353|58","697925458|13|15:36:00|60|2198512348|12813095590912416|50","2904169401|12|15:36:00|60|2011584683|17813647340942699|57","1561893142|9|15:37:00|120|3211140642|19513095190912399|56","1561893142|8|15:38:00|60|3211140642|11413094950795507|57","2696990795|7|15:38:00|60|1102200894|10313094610651562|48","2696990795|7|15:35:00|120|2425224985|10513094670912373|41","4198886535|4|15:38:00|60|175753322|17713864020942711|57","4122770022|9|15:38:00|60|1736981303|18113095120912393|57","4122770022|5|15:37:00|120|1128226880|12313094300094711|57","3711272335|4|15:37:00|60|1760224038|26013864030942709|54","1152988904|3|15:38:00|60|3649286437|10713093990095500|57","3487389407|2|15:35:00|120|1721597436|10613093750095483|59","2247827349|1|15:35:00|120|2924666242|10713092900095468|60","3411985938|13|15:38:00|120|697925458|7313095560912416|51","3411985938|13|15:34:00|60|4225800166|7413095580912419|55","4248981646|9|15:36:00|120|3224579423|17813095150912393|60","3211140642|9|15:38:00|60|1561893142|9213095090912393|58","3211140642|9|15:36:00|60|1102200894|19113095150912395|57","2425224985|7|15:35:00|60|2696990795|5813094560651562|43","2624477086|6|15:38:00|60|4198886535|10913094510295944|56","2624477086|6|15:34:00|60|44881418|10213094450912370|58","3649286437|3|15:37:00|120|73874293|12113093980095500|57","2924666242|7|15:38:00|60|380937225|9713094590651565|41","2924666242|1|15:36:00|120|2247827349|12013844190955497|58","1876271269|7|15:38:00|60|2425224985|10413094610651563|40","1876271269|7|15:36:00|120|1393958362|6813094630912379|44","44881418|6|15:35:00|60|1450883263|10213094450912370|55","44881418|4|15:38:00|60|175753322|24413864010942709|56","44881418|13|15:35:00|120|3789783956|7213095560912416|47","44881418|12|15:38:00|120|3475396030|10413647210942701|56","44881418|12|15:34:00|120|3683962764|12313647310942699|56","1727514119|5|15:37:00|60|1393958362|13413094370912363|57","606571514|4|15:34:00|60|2358884938|17013864020942711|57","73874293|8|15:36:00|60|3211140642|11413094950795505|55","73874293|7|15:34:00|120|380937225|813094650651581|46","73874293|3|15:37:00|120|645341577|13813093970095500|57","73874293|3|15:34:00|60|3649286437|17413094020912354|58","244503826|2|15:37:00|60|1721597436|20013093810095484|57","3747807733|1|15:38:00|60|1100607264|10713092900095468|59","2669665705|13|15:36:00|60|3524584243|12013095660912419|54","2669665705|1|15:38:00|60|2734436604|10813092900912257|58","2669665705|1|15:36:00|60|2011584683|10813092900095468|58","595945906|11|15:36:00|60|209994619|19913095460912409|55","3217152725|9|15:38:00|120|1390530723|19913095120912395|57","1450883263|6|15:34:00|60|2801003483|413094550912369|58","1450883263|12|15:37:00|60|3475396030|19513647320942699|58","2358884938|4|15:38:00|60|1213432453|17113864020942711|57","2358884938|4|15:36:00|120|606571514|24913864010942709|54","645341577|9|15:38:00|60|4197757394|9613095820912395|55","645341577|3|15:36:00|60|73874293|19713093930912354|59","3524584243|9|15:34:00|120|4197757394|313095820912389|59","3524584243|13|15:37:00|120|2669665705|11813095680912416|48","3524584243|13|15:34:00|120|552165531|11813095680912414|51","2009211090|12|15:37:00|60|3781035794|12113647310942699|58","600722887|10|15:38:00|120|2635662580|9013164320917608|53","2198512348|13|15:35:00|120|44881418|11613095680912417|44","2198512348|10|15:36:00|120|4012104432|12113164410917606|53","2198512348|10|15:34:00|60|600722887|10413164400296022|54","2011584683|8|15:37:00|60|4225800166|17813094910795507|56","2011584683|8|15:34:00|120|1065328272|18513094970795505|53","2011584683|12|15:36:00|120|1065328272|313647310942702|57","2011584683|1|15:34:00|120|2669665705|21313092920912269|57","2692076464|7|15:35:00|60|1393958362|10413094610651563|43","2801003483|6|15:38:00|60|1450883263|18513094540295944|56","2801003483|6|15:35:00|120|3875198686|413094550912369|58","1213432453|4|15:38:00|60|3300801987|10713864000942711|52","1213432453|3|15:37:00|60|1917711411|9413093920912354|57","3117275467|2|15:34:00|60|3614543683|20013093810095484|56","2890651828|14|15:35:00|60|2535004149|18613164420912435|59","3781035794|12|15:38:00|60|2009211090|15813647350942701|58","3468280332|11|15:34:00|60|209994619|13513095500440174|57","4012104432|10|15:37:00|60|2488289503|13313164360917606|55","4012104432|10|15:34:00|120|2198512348|13113164380296022|52","3164047331|9|15:37:00|60|1390530723|18813095120912393|57","4225800166|8|15:37:00|60|2011584683|17913094960795505|57","4225800166|13|15:35:00|120|2669665705|7413095580912419|54","3875198686|6|15:37:00|60|2635662580|413094550912369|57","3875198686|6|15:35:00|120|2801003483|10613094450295944|57","3300801987|9|15:35:00|60|3653339166|19513095190912399|55","3300801987|8|15:38:00|60|3653339166|18913094970795507|57","3300801987|4|15:35:00|60|1213432453|11413864000942709|55","4013515236|3|15:37:00|120|552165531|17513093960912354|59","1877754383|1|15:34:00|180|3398784409|19913093030912289|58","2535004149|14|15:37:00|120|2871016604|23913164430917618|59","2974665047|13|15:36:00|60|1183318172|11813095660912420|45","618858167|13|15:37:00|120|552165531|13013095590912416|48","3838784219|12|15:37:00|120|3781035794|10213647290942700|54","3838784219|12|15:34:00|60|3614543683|14913647350942699|57","637614763|11|15:36:00|60|3987776330|11813095420912409|55","560256723|10|15:34:00|120|3565805587|10313164400296022|54","2488289503|12|15:34:00|60|695063120|15313647350942701|55","2488289503|10|15:35:00|60|4012104432|12913164410296022|51","2673577552|9|15:35:00|60|3164047331|17913095150912393|57","4290789948|8|15:38:00|60|2496888016|11213094950795507|56","4290789948|8|15:34:00|60|4225800166|513094970912387|53","2577613756|7|15:37:00|60|2096931515|9513094590651565|44","2577613756|5|15:34:00|120|2058569149|11113094380094711|58","2577613756|2|15:36:00|60|3487389407|11213093880095483|58","2826028950|4|15:35:00|60|3300801987|25013864010942709|54","1362116730|2|15:37:00|120|1282474756|21313093770912330|56","1362116730|2|15:34:00|120|3265715605|15413093790095484|56","3398784409|8|15:37:00|60|3780921823|12113094980795505|55","3398784409|5|15:38:00|60|3179893028|12213094300094711|57","3398784409|1|15:36:00|180|3891613492|10513092900095468|58","2871016604|14|15:38:00|60|1194974051|18613164420912435|59","2871016604|14|15:36:00|120|2535004149|18213164420912430|59","1183318172|13|15:34:00|60|2974665047|13013095590912417|49","3265715605|2|15:37:00|60|3117275467|13613093860912349|56","3265715605|13|15:34:00|60|3325830777|6513095550912413|49","3614543683|2|15:37:00|60|3117275467|22013093760912330|56","3614543683|12|15:38:00|60|2075612487|12013647310942699|57","3614543683|12|15:36:00|60|3838784219|10213647290942700|56","3987776330|2|15:38:00|60|2858233536|13213093860912349|54","3987776330|11|15:36:00|60|637614763|14513095520440174|56","3565805587|10|15:37:00|120|560256723|9213164320917606|53","1098202862|10|15:35:00|60|3715978556|9813164400917614|52","3253812998|9|15:36:00|60|2673577552|18213095190912398|59","3253812998|9|15:34:00|60|3427371663|18513095150912395|57","2496888016|8|15:34:00|60|4290789948|12413094980795505|56","2096931515|7|15:37:00|60|2577613756|513094610912377|42","2096931515|7|15:34:00|60|882210155|10213094610651565|44","3129038787|6|15:37:00|60|499775835|413094520912371|55","3907763713|5|15:37:00|120|2738613188|613094400912366|59","1393958362|7|15:35:00|120|1876271269|513094590912381|45","1393958362|5|15:37:00|120|2058569149|10713094380912363|54","1393958362|5|15:35:00|60|1727514119|10113094320094711|58","1393958362|4|15:36:00|60|2058569149|10513864000942711|52","1126076862|3|15:34:00|60|1282474756|17513093960912354|57","1282474756|3|15:36:00|120|4013515236|1913093930912353|59","1282474756|3|15:34:00|60|1126076862|18413094020095500|57","209994619|7B|15:37:00|120|2610627973|8213094790651584|37","209994619|11|15:35:00|60|3468280332|11213095440912409|55","1194974051|6|15:37:00|60|946374679|10213094450295944|56","1194974051|6|15:34:00|60|2706513156|10513094450912370|58","1194974051|14|15:35:00|120|3891613492|22113095790912435|59","3691015742|13|15:37:00|120|1183318172|12213095660912424|49","3325830777|13|15:35:00|120|2974665047|11713095680912414|49","3325830777|13|15:35:00|60|3265715605|13013095590912416|46","2075612487|12|15:35:00|60|3614543683|10213647290942700|56","3714063920|11|15:37:00|60|3987776330|11813095420440174|57","4025722812|10|15:34:00|120|3720819819|8913164340917608|54","3715978556|4|15:37:00|60|977856475|11213864000942709|56","3715978556|10|15:37:00|60|1098202862|9113164320917608|53","3715978556|10|15:34:00|60|2932899145|11913164380917610|53","2635662580|8|15:36:00|120|2688858633|18313094970795507|55","2635662580|6|15:34:00|60|3129038787|13313094550912370|56","882210155|7|15:37:00|60|2096931515|9513094590651563|42","882210155|7|15:35:00|60|635591290|10213094610651565|44","499775835|6|15:37:00|60|2465875946|10613094510912370|58","4065628367|5|15:35:00|120|3907763713|10313094320094711|58","2058569149|5|15:36:00|120|1393958362|11113094380094711|58","2058569149|5|15:34:00|120|2577613756|13213094370912363|56","2058569149|4|15:36:00|120|1721597436|24213864030942711|53","469044143|3|15:34:00|60|1126076862|1913093930912353|58","48157230|2|15:34:00|60|1282474756|10313093750095484|57","3591610132|8|15:37:00|120|2346477303|17913094970795505|55","3591610132|8|15:34:00|60|3930049404|10013094890795507|59","3591610132|1|15:37:00|120|2893655003|10413092900095468|58","3891613492|14|15:38:00|180|1100607264|18513164420912435|59","3891613492|1|15:36:00|120|3398784409|22013092920912269|56","3421576237|13|15:37:00|120|3691015742|6813095550912417|53","3421576237|13|15:34:00|120|1840343478|12713095640912420|47","3200465306|12|15:35:00|60|2075612487|10213647230942707|58","891393435|9|15:38:00|120|4122770022|2013095150912389|58","891393435|9|15:35:00|60|3300801987|19213095150912395|55","891393435|8|15:37:00|120|3300801987|10013094880795507|57","891393435|5|15:38:00|120|1727514119|10813094380912363|55","891393435|3|15:36:00|60|3514016666|18913094020095500|56","891393435|11|15:38:00|60|3714063920|11313095490440174|55","891393435|11|15:36:00|120|1917711411|11113095440912409|53","2932899145|10|15:35:00|60|3866913670|11913164380917610|53","3499425610|9|15:35:00|60|729999544|9513095100912399|58","2688858633|8|15:37:00|60|2635662580|613094970912387|56","2688858633|8|15:35:00|60|482278776|11013094950795507|55","635591290|7|15:36:00|120|882210155|10613094610651563|48","2465875946|6|15:34:00|120|20785767|10513094510912370|58","4198988390|5|15:36:00|120|4065628367|14313094370094711|58","4198988390|5|15:34:00|120|53962395|10413094380912363|57","1721597436|2|15:35:00|120|244503826|15913093790912333|56","4091065876|3|15:38:00|120|3412286137|20913094000095500|59","4091065876|3|15:35:00|60|469044143|10613093990912354|58","2120950107|2|15:38:00|60|2334959990|20213093810912330|56","2893655003|9|15:34:00|120|3110610795|17013095150912393|58","2893655003|6|15:37:00|60|2493371295|11213094510912370|54","2893655003|2|15:34:00|60|3761260163|11513093880095483|58","2893655003|1|15:37:00|60|1523019830|20813092920912270|58","2269163997|3B|15:37:00|60|3877040829|10113094270651522|44","2269163997|3|15:35:00|120|2503048334|10913093990095500|58","1840343478|13|15:36:00|120|3421576237|13213095590912417|48","2450931568|13|15:38:00|120|65431437|7513095560912416|50","3991952489|12|15:38:00|120|3200465306|10313647230942707|56","3991952489|12|15:36:00|60|1282210726|14813647350942699|58","1917711411|3|15:38:00|60|3514016666|9413093920912354|57","1917711411|11|15:36:00|120|891393435|11313095490440174|56","896555290|10|15:35:00|60|352028051|12313164410917606|53","3866913670|10|15:38:00|60|2932899145|13413164380296022|52","729999544|9|15:38:00|120|1374784815|18513095150912395|58","482278776|8|15:36:00|60|2688858633|613094970912387|57","1033620933|7|15:37:00|60|635591290|10513094610651562|44","1033620933|7|15:35:00|120|3098817292|9713094650912379|45","20785767|9|15:37:00|120|4248981646|10213095160912398|59","20785767|6|15:34:00|60|2465875946|10713094450295944|57","53962395|5|15:38:00|120|2258265757|9613094320912364|57","1293807658|4|15:34:00|60|1721597436|11613864000942709|55","3412286137|3|15:35:00|60|4091065876|11913093980912354|59","2334959990|2|15:38:00|120|2120950107|20413093810095484|58","1523019830|1|15:38:00|60|2893655003|14713093000912282|55","1523019830|1|15:35:00|120|3095607449|19513093030912289|58","245371276|7B|15:37:00|120|1569477485|11913094800651584|31","3877040829|3B|15:38:00|60|2269163997|14913094260651521|45","380937225|7|15:34:00|120|73874293|10013094650912379|42","380937225|14|15:37:00|60|1065328272|18313164420912435|59","2960704645|13|15:38:00|120|4215555989|12713095640912420|49","2274972608|13|15:35:00|120|2450931568|6813095550912416|47","2046468661|11|15:35:00|60|1917711411|11313095490440174|57","3427371663|9|15:36:00|60|3253812998|18013095150912393|59","3427371663|10|15:38:00|60|896555290|12413164410917606|54","1771918760|10|15:36:00|120|3866913670|14613164360296022|54","1374784815|9|15:34:00|120|351139424|19413095120912395|58","125894007|8|15:36:00|60|482278776|513094920912387|55","3098817292|7|15:38:00|120|890688308|10313094670912379|44","3098817292|7|15:36:00|120|1033620933|9613094590651563|40","1950730894|6|15:35:00|60|3871409354|12013094500912370|56","2258265757|5|15:38:00|60|2277425032|10413094380912363|57","1282210726|4|15:38:00|60|1465479446|10413864000942711|51","1282210726|12|15:36:00|60|3991952489|12313647310942701|56","3638581237|3|15:35:00|60|3412286137|17713093960912354|55","3095607449|1|15:37:00|120|2920343104|20713092920912270|58","3095607449|1|15:34:00|60|1523019830|22213092920912269|59","2738613188|7B|15:35:00|60|2014137071|11013094810651583|30","2738613188|5|15:34:00|120|2577613756|913094390912366|59","2738613188|2|15:37:00|60|1500021116|19813093810095484|57","2609365027|3B|15:38:00|60|2998612092|8913094240651522|42","1065328272|8|15:34:00|60|2011584683|11213094950795507|56","1065328272|14|15:38:00|60|380937225|18613164420912430|39","1065328272|12|15:34:00|120|552165531|12113647310942699|57","4215555989|13|15:36:00|120|2960704645|12413095660912424|52","10090157|13|15:38:00|120|271775302|8713095630912419|47","2402899129|12|15:37:00|60|1282210726|10913647210942701|55","2402899129|12|15:34:00|120|41893941|16713647260942699|57","3827069729|11|15:34:00|60|2046468661|11313095490440174|58","3827069729|1|15:37:00|60|1877754383|10613092900095468|59","980642687|10|15:34:00|60|4152748969|10113164400296022|51","3882868379|7|15:36:00|60|2177031349|6013094560651565|44","3882868379|10|15:37:00|60|1771918760|9213164320917608|53","351139424|9|15:34:00|120|1374784815|19113095120912393|55","4278050457|8|15:35:00|60|125894007|513094920912387|55","890688308|7|15:38:00|120|3098817292|6613094570651562|40","890688308|7|15:34:00|120|37245713|10213094670912379|46","3871409354|6|15:34:00|60|1950730894|11113094510295944|57","2277425032|5|15:34:00|120|2258265757|19713094340094711|59","1465479446|4|15:36:00|60|1282210726|25513864010942709|53","2493342269|3|15:37:00|60|3638581237|18013094020912354|58","475845330|2|15:35:00|60|3873492639|19913093810912330|56","2920343104|1|15:36:00|60|2532042518|10213092900095468|58","2920343104|1|15:34:00|120|3095607449|11313092900912257|55","2014137071|7|15:37:00|120|2577613756|10313094610651565|40","2014137071|7|15:35:00|120|2692076464|10413094610651562|47","2998612092|11|15:37:00|120|2805226700|13513095500440174|56","552165531|3|15:35:00|60|645341577|19713093930912354|57","552165531|14|15:37:00|120|1065328272|24113164430912430|59","552165531|13|1